ATTITUDE {time_boot_ms : 413126, roll : -0.00479464698583, pitch : 0.000264394562691, yaw : -2.33696556091, rollspeed : 0.000240009278059, pitchspeed : 0.00403408706188, yawspeed : -0.00448151305318}
VFR_HUD {airspeed : 0.25, groundspeed : 0.25, heading : 226, throttle : 0, alt : 0.119999997318, climb : 0.0}
RAW_IMU {time_usec : 410639209, xacc : -7, yacc : 9, zacc : -1002, xgyro : 0, ygyro : 3, zgyro : -2, xmag : -291, ymag : 307, zmag : 64}
ATTITUDE {time_boot_ms : 413248, roll : -0.00461574085057, pitch : 0.000155804678798, yaw : -2.33659434319, rollspeed : 0.00151751935482, pitchspeed : 0.00301051139832, yawspeed : -0.00300621241331}
VFR_HUD {airspeed : 0.25, groundspeed : 0.25, heading : 226, throttle : 0, alt : 0.119999997318, climb : 0.0}
GPS_RAW_INT {time_usec : 413141000, fix_type : 3, lat : 139106132, lon : 1004957538, alt : 7780, eph : 259, epv : 65535, vel : 25, cog : 32067, satellites_visible : 6}
GLOBAL_POSITION_INT {time_boot_ms : 413322, lat : 139106130, lon : 1004957535, alt : 7970, relative_alt : 120, vx : -34, vy : 24, vz : 34, hdg : 22614}
ATTITUDE {time_boot_ms : 413376, roll : -0.00472176773474, pitch : 0.000181986019015, yaw : -2.33639907837, rollspeed : 0.000191301107407, pitchspeed : 0.00281085446477, yawspeed : -0.00337723270059}
VFR_HUD {airspeed : 0.419999986887, groundspeed : 0.419999986887, heading : 226, throttle : 0, alt : 0.119999997318, climb : 0.0}
SERVO_OUTPUT_RAW {time_usec : 410909285, port : 0, servo1_raw : 1016, servo2_raw : 1016, servo3_raw : 1016, servo4_raw : 1016, servo5_raw : 0, servo6_raw : 0, servo7_raw : 0, servo8_raw : 0}
RC_CHANNELS_RAW {time_boot_ms : 413459, port : 0, chan1_raw : 1472, chan2_raw : 1506, chan3_raw : 1020, chan4_raw : 1498, chan5_raw : 1017, chan6_raw : 1503, chan7_raw : 1503, chan8_raw : 1502, rssi : 218}
ATTITUDE {time_boot_ms : 413499, roll : -0.00461187586188, pitch : 0.000173507723957, yaw : -2.33615136147, rollspeed : 0.00163974240422, pitchspeed : 0.00231158360839, yawspeed : -0.00333006307483}
VFR_HUD {airspeed : 0.229999989271, groundspeed : 0.229999989271, heading : 226, throttle : 0, alt : 0.119999997318, climb : 0.0}
GLOBAL_POSITION_INT {time_boot_ms : 413521, lat : 139106127, lon : 1004957539, alt : 8030, relative_alt : 120, vx : 9, vy : -21, vz : -9, hdg : 22611}
SERVO_OUTPUT_RAW {time_usec : 411156549, port : 0, servo1_raw : 1016, servo2_raw : 1016, servo3_raw : 1016, servo4_raw : 1016, servo5_raw : 0, servo6_raw : 0, servo7_raw : 0, servo8_raw : 0}
RC_CHANNELS_RAW {time_boot_ms : 413706, port : 0, chan1_raw : 1472, chan2_raw : 1507, chan3_raw : 1020, chan4_raw : 1497, chan5_raw : 1017, chan6_raw : 1503, chan7_raw : 1503, chan8_raw : 1503, rssi : 232}
RAW_IMU {time_usec : 411197063, xacc : -9, yacc : 9, zacc : -1005, xgyro : 2, ygyro : 2, zgyro : -3, xmag : -293, ymag : 304, zmag : 68}
ATTITUDE {time_boot_ms : 413747, roll : -0.00445159012452, pitch : 6.60591758788e-05, yaw : -2.3369448185, rollspeed : 0.00222374126315, pitchspeed : 0.00263685360551, yawspeed : -0.0034934990108}
GPS_RAW_INT {time_usec : 413741000, fix_type : 3, lat : 139106124, lon : 1004957546, alt : 8070, eph : 259, epv : 65535, vel : 18, cog : 32067, satellites_visible : 6}
VFR_HUD {airspeed : 0.179999992251, groundspeed : 0.179999992251, heading : 226, throttle : 0, alt : 0.109999999404, climb : 0.0}
GLOBAL_POSITION_INT {time_boot_ms : 413921, lat : 139106125, lon : 1004957542, alt : 8070, relative_alt : 110, vx : 4, vy : -3, vz : -4, hdg : 22608}
SERVO_OUTPUT_RAW {time_usec : 411381529, port : 0, servo1_raw : 1016, servo2_raw : 1016, servo3_raw : 1016, servo4_raw : 1016, servo5_raw : 0, servo6_raw : 0, servo7_raw : 0, servo8_raw : 0}
RC_CHANNELS_RAW {time_boot_ms : 413931, port : 0, chan1_raw : 1472, chan2_raw : 1507, chan3_raw : 1020, chan4_raw : 1497, chan5_raw : 1017, chan6_raw : 1503, chan7_raw : 1503, chan8_raw : 1503, rssi : 233}
RAW_IMU {time_usec : 411421495, xacc : -9, yacc : 8, zacc : -1004, xgyro : 0, ygyro : 2, zgyro : -3, xmag : -294, ymag : 304, zmag : 68}
ATTITUDE {time_boot_ms : 413971, roll : -0.00454044016078, pitch : 0.000167786609381, yaw : -2.33742260933, rollspeed : 0.000227384269238, pitchspeed : 0.00249761343002, yawspeed : -0.00376813486218}
GPS_RAW_INT {time_usec : 413921000, fix_type : 3, lat : 139106125, lon : 1004957549, alt : 8070, eph : 259, epv : 65535, vel : 6, cog : 32067, satellites_visible : 6}
VFR_HUD {airspeed : 0.0599999986589, groundspeed : 0.0599999986589, heading : 226, throttle : 0, alt : 0.0999999940395, climb : 0.0}
GLOBAL_POSITION_INT {time_boot_ms : 414141, lat : 139106124, lon : 1004957544, alt : 8240, relative_alt : 100, vx : -9, vy : -7, vz : 9, hdg : 22607}
SERVO_OUTPUT_RAW {time_usec : 411616571, port : 0, servo1_raw : 1016, servo2_raw : 1016, servo3_raw : 1016, servo4_raw : 1016, servo5_raw : 0, servo6_raw : 0, servo7_raw : 0, servo8_raw : 0}
RC_CHANNELS_RAW {time_boot_ms : 414166, port : 0, chan1_raw : 1472, chan2_raw : 1507, chan3_raw : 1020, chan4_raw : 1498, chan5_raw : 1017, chan6_raw : 1503, chan7_raw : 1503, chan8_raw : 1502, rssi : 235}
RAW_IMU {time_usec : 411656610, xacc : -9, yacc : 9, zacc : -1006, xgyro : 1, ygyro : 2, zgyro : -2, xmag : -294, ymag : 307, zmag : 68}
ATTITUDE {time_boot_ms : 414206, roll : -0.00459493743256, pitch : 0.000192262232304, yaw : -2.33763790131, rollspeed : 0.0010914131999, pitchspeed : 0.00283958762884, yawspeed : -0.0028996579349}
GPS_RAW_INT {time_usec : 414141000, fix_type : 3, lat : 139106122, lon : 1004957551, alt : 8240, eph : 259, epv : 65535, vel : 12, cog : 32067, satellites_visible : 6}
VFR_HUD {airspeed : 0.119999997318, groundspeed : 0.119999997318, heading : 226, throttle : 0, alt : 0.109999999404, climb : 0.0}
GLOBAL_POSITION_INT {time_boot_ms : 414341, lat : 139106122, lon : 1004957547, alt : 8290, relative_alt : 100, vx : -2, vy : 14, vz : 2, hdg : 22609}
SERVO_OUTPUT_RAW {time_usec : 411841687, port : 0, servo1_raw : 1016, servo2_raw : 1016, servo3_raw : 1016, servo4_raw : 1016, servo5_raw : 0, servo6_raw : 0, servo7_raw : 0, servo8_raw : 0}
RC_CHANNELS_RAW {time_boot_ms : 414391, port : 0, chan1_raw : 1472, chan2_raw : 1506, chan3_raw : 1020, chan4_raw : 1499, chan5_raw : 1017, chan6_raw : 1503, chan7_raw : 1503, chan8_raw : 1503, rssi : 207}
RAW_IMU {time_usec : 411886815, xacc : -8, yacc : 11, zacc : -1007, xgyro : 1, ygyro : 3, zgyro : -3, xmag : -290, ymag : 308, zmag : 65}
ATTITUDE {time_boot_ms : 414436, roll : -0.00453669391572, pitch : 0.000153310131282, yaw : -2.33692359924, rollspeed : 0.0010457187891, pitchspeed : 0.00335205346346, yawspeed : -0.00335625559092}
GPS_RAW_INT {time_usec : 414541000, fix_type : 3, lat : 139106121, lon : 1004957558, alt : 8330, eph : 259, epv : 65535, vel : 9, cog : 32067, satellites_visible : 6}
VFR_HUD {airspeed : 0.0999999940395, groundspeed : 0.0999999940395, heading : 226, throttle : 0, alt : 0.109999999404, climb : 0.0}
GLOBAL_POSITION_INT {time_boot_ms : 414541, lat : 139106120, lon : 1004957552, alt : 8330, relative_alt : 110, vx : 9, vy : -1, vz : -9, hdg : 22614}
SERVO_OUTPUT_RAW {time_usec : 412076594, port : 0, servo1_raw : 1016, servo2_raw : 1016, servo3_raw : 1016, servo4_raw : 1016, servo5_raw : 0, servo6_raw : 0, servo7_raw : 0, servo8_raw : 0}
RC_CHANNELS_RAW {time_boot_ms : 414626, port : 0, chan1_raw : 1472, chan2_raw : 1506, chan3_raw : 1021, chan4_raw : 1497, chan5_raw : 1017, chan6_raw : 1503, chan7_raw : 1503, chan8_raw : 1502, rssi : 249}
RAW_IMU {time_usec : 412118983, xacc : -7, yacc : 9, zacc : -1004, xgyro : 1, ygyro : 3, zgyro : -3, xmag : -293, ymag : 303, zmag : 64}
ATTITUDE {time_boot_ms : 414669, roll : -0.00474116764963, pitch : 0.000220246147364, yaw : -2.33651566505, rollspeed : 0.00124855339527, pitchspeed : 0.00370505824685, yawspeed : -0.00319525972009}
GPS_RAW_INT {time_usec : 414741000, fix_type : 3, lat : 139106122, lon : 1004957558, alt : 8320, eph : 259, epv : 65535, vel : 12, cog : 32067, satellites_visible : 6}
VFR_HUD {airspeed : 0.119999997318, groundspeed : 0.119999997318, heading : 226, throttle : 0, alt : 0.109999999404, climb : 0.0}
GLOBAL_POSITION_INT {time_boot_ms : 414741, lat : 139106119, lon : 1004957555, alt : 8320, relative_alt : 110, vx : 0, vy : -12, vz : 0, hdg : 22613}
SERVO_OUTPUT_RAW {time_usec : 412314343, port : 0, servo1_raw : 1016, servo2_raw : 1016, servo3_raw : 1016, servo4_raw : 1016, servo5_raw : 0, servo6_raw : 0, servo7_raw : 0, servo8_raw : 0}
RC_CHANNELS_RAW {time_boot_ms : 414864, port : 0, chan1_raw : 1472, chan2_raw : 1507, chan3_raw : 1020, chan4_raw : 1497, chan5_raw : 1017, chan6_raw : 1503, chan7_raw : 1503, chan8_raw : 1503, rssi : 243}
RAW_IMU {time_usec : 412356496, xacc : -9, yacc : 7, zacc : -1005, xgyro : 1, ygyro : 3, zgyro : -2, xmag : -293, ymag : 303, zmag : 64}
ATTITUDE {time_boot_ms : 414906, roll : -0.00481698801741, pitch : 0.000272891949862, yaw : -2.33656597137, rollspeed : 0.00122954696417, pitchspeed : 0.00359697267413, yawspeed : -0.00297091342509}
GPS_RAW_INT {time_usec : 414941000, fix_type : 3, lat : 139106125, lon : 1004957553, alt : 8350, eph : 259, epv : 65535, vel : 71, cog : 32067, satellites_visible : 6}
VFR_HUD {airspeed : 0.709999978542, groundspeed : 0.709999978542, heading : 226, throttle : 0, alt : 0.0999999940395, climb : 0.0}
GLOBAL_POSITION_INT {time_boot_ms : 414941, lat : 139106119, lon : 1004957557, alt : 8350, relative_alt : 110, vx : 42, vy : -57, vz : -42, hdg : 22610}
SERVO_OUTPUT_RAW {time_usec : 412546920, port : 0, servo1_raw : 1016, servo2_raw : 1016, servo3_raw : 1016, servo4_raw : 1016, servo5_raw : 0, servo6_raw : 0, servo7_raw : 0, servo8_raw : 0}
RC_CHANNELS_RAW {time_boot_ms : 415096, port : 0, chan1_raw : 1472, chan2_raw : 1506, chan3_raw : 1021, chan4_raw : 1500, chan5_raw : 1018, chan6_raw : 1502, chan7_raw : 1503, chan8_raw : 1503, rssi : 251}
RAW_IMU {time_usec : 412589260, xacc : -8, yacc : 10, zacc : -1007, xgyro : 2, ygyro : 3, zgyro : -3, xmag : -292, ymag : 306, zmag : 69}
ATTITUDE {time_boot_ms : 415139, roll : -0.00477116229013, pitch : 0.000163190066814, yaw : -2.33702778816, rollspeed : 0.00210515409708, pitchspeed : 0.00326670706272, yawspeed : -0.00308350101113}
GPS_RAW_INT {time_usec : 415141000, fix_type : 3, lat : 139106128, lon : 1004957553, alt : 8390, eph : 259, epv : 65535, vel : 11, cog : 32067, satellites_visible : 6}
VFR_HUD {airspeed : 0.109999999404, groundspeed : 0.109999999404, heading : 226, throttle : 0, alt : 0.119999997318, climb : 0.00999999977648}
GLOBAL_POSITION_INT {time_boot_ms : 415141, lat : 139106120, lon : 1004957558, alt : 8370, relative_alt : 120, vx : -2, vy : 11, vz : 2, hdg : 22610}
SERVO_OUTPUT_RAW {time_usec : 412771764, port : 0, servo1_raw : 1016, servo2_raw : 1016, servo3_raw : 1016, servo4_raw : 1016, servo5_raw : 0, servo6_raw : 0, servo7_raw : 0, servo8_raw : 0}
RC_CHANNELS_RAW {time_boot_ms : 415321, port : 0, chan1_raw : 1471, chan2_raw : 1507, chan3_raw : 1017, chan4_raw : 1987, chan5_raw : 1017, chan6_raw : 1503, chan7_raw : 1503, chan8_raw : 1503, rssi : 225}
RAW_IMU {time_usec : 412812009, xacc : -8, yacc : 10, zacc : -1002, xgyro : 0, ygyro : 3, zgyro : -2, xmag : -290, ymag : 305, zmag : 59}
ATTITUDE {time_boot_ms : 415362, roll : -0.0047744223848, pitch : 0.000277387909591, yaw : -2.337007761, rollspeed : 0.000830542296171, pitchspeed : 0.00357157737017, yawspeed : -0.00273917429149}
GPS_RAW_INT {time_usec : 415341000, fix_type : 3, lat : 139106128, lon : 1004957553, alt : 8370, eph : 259, epv : 65535, vel : 26, cog : 32067, satellites_visible : 6}
VFR_HUD {airspeed : 0.269999980927, groundspeed : 0.269999980927, heading : 226, throttle : 0, alt : 0.129999995232, climb : 0.00999999977648}
GLOBAL_POSITION_INT {time_boot_ms : 415541, lat : 139106121, lon : 1004957559, alt : 8390, relative_alt : 130, vx : -9, vy : 7, vz : 9, hdg : 22612}
SERVO_OUTPUT_RAW {time_usec : 412996514, port : 0, servo1_raw : 1016, servo2_raw : 1016, servo3_raw : 1016, servo4_raw : 1016, servo5_raw : 0, servo6_raw : 0, servo7_raw : 0, servo8_raw : 0}
RC_CHANNELS_RAW {time_boot_ms : 415546, port : 0, chan1_raw : 1471, chan2_raw : 1507, chan3_raw : 1017, chan4_raw : 1987, chan5_raw : 1017, chan6_raw : 1503, chan7_raw : 1503, chan8_raw : 1503, rssi : 243}
RAW_IMU {time_usec : 413038960, xacc : -7, yacc : 7, zacc : -1004, xgyro : 1, ygyro : 2, zgyro : -2, xmag : -290, ymag : 305, zmag : 60}
ATTITUDE {time_boot_ms : 415588, roll : -0.00473555829376, pitch : 0.000323951244354, yaw : -2.33670282364, rollspeed : 0.00141221284866, pitchspeed : 0.00299454852939, yawspeed : -0.00260316766798}
GPS_RAW_INT {time_usec : 415541000, fix_type : 3, lat : 139106127, lon : 1004957554, alt : 8390, eph : 259, epv : 65535, vel : 12, cog : 32067, satellites_visible : 6}
VFR_HUD {airspeed : 0.119999997318, groundspeed : 0.119999997318, heading : 226, throttle : 0, alt : 0.140000000596, climb : 0.00999999977648}
GLOBAL_POSITION_INT {time_boot_ms : 415741, lat : 139106121, lon : 1004957559, alt : 8500, relative_alt : 140, vx : 4, vy : -4, vz : -4, hdg : 22611}
SERVO_OUTPUT_RAW {time_usec : 413237636, port : 0, servo1_raw : 1016, servo2_raw : 1016, servo3_raw : 1016, servo4_raw : 1016, servo5_raw : 0, servo6_raw : 0, servo7_raw : 0, servo8_raw : 0}
RC_CHANNELS_RAW {time_boot_ms : 415787, port : 0, chan1_raw : 1471, chan2_raw : 1507, chan3_raw : 1016, chan4_raw : 1988, chan5_raw : 1017, chan6_raw : 1503, chan7_raw : 1503, chan8_raw : 1502, rssi : 226}
RAW_IMU {time_usec : 413276765, xacc : -9, yacc : 7, zacc : -1006, xgyro : 2, ygyro : 3, zgyro : -3, xmag : -292, ymag : 302, zmag : 62}
ATTITUDE {time_boot_ms : 415826, roll : -0.00468334136531, pitch : 0.000376336742193, yaw : -2.33704376221, rollspeed : 0.00274775922298, pitchspeed : 0.00327603146434, yawspeed : -0.00362393632531}
GPS_RAW_INT {time_usec : 415741000, fix_type : 3, lat : 139106128, lon : 1004957556, alt : 8480, eph : 259, epv : 65535, vel : 6, cog : 32067, satellites_visible : 6}
VFR_HUD {airspeed : 0.189999997616, groundspeed : 0.189999997616, heading : 226, throttle : 0, alt : 0.140000000596, climb : 0.00999999977648}
GLOBAL_POSITION_INT {time_boot_ms : 415942, lat : 139106122, lon : 1004957561, alt : 8480, relative_alt : 140, vx : 16, vy : -9, vz : -16, hdg : 22609}
SERVO_OUTPUT_RAW {time_usec : 413459411, port : 0, servo1_raw : 1016, servo2_raw : 1016, servo3_raw : 1016, servo4_raw : 1016, servo5_raw : 0, servo6_raw : 0, servo7_raw : 0, servo8_raw : 0}
RC_CHANNELS_RAW {time_boot_ms : 416009, port : 0, chan1_raw : 1472, chan2_raw : 1507, chan3_raw : 1017, chan4_raw : 1987, chan5_raw : 1017, chan6_raw : 1503, chan7_raw : 1503, chan8_raw : 1503, rssi : 227}
RAW_IMU {time_usec : 413502000, xacc : -7, yacc : 7, zacc : -1005, xgyro : 0, ygyro : 4, zgyro : -2, xmag : -294, ymag : 304, zmag : 77}
ATTITUDE {time_boot_ms : 416051, roll : -0.00478883972391, pitch : 0.000164063181728, yaw : -2.33735585213, rollspeed : 0.000222273170948, pitchspeed : 0.00408508628607, yawspeed : -0.00293804332614}
GPS_RAW_INT {time_usec : 416121000, fix_type : 3, lat : 139106126, lon : 1004957558, alt : 8530, eph : 259, epv : 65535, vel : 22, cog : 32067, satellites_visible : 6}
VFR_HUD {airspeed : 0.229999989271, groundspeed : 0.229999989271, heading : 226, throttle : 0, alt : 0.149999991059, climb : 0.019999999553}
GLOBAL_POSITION_INT {time_boot_ms : 416121, lat : 139106122, lon : 1004957561, alt : 8530, relative_alt : 140, vx : -22, vy : 3, vz : 22, hdg : 22607}
SERVO_OUTPUT_RAW {time_usec : 413696592, port : 0, servo1_raw : 1016, servo2_raw : 1016, servo3_raw : 1016, servo4_raw : 1016, servo5_raw : 0, servo6_raw : 0, servo7_raw : 0, servo8_raw : 0}
RC_CHANNELS_RAW {time_boot_ms : 416246, port : 0, chan1_raw : 1472, chan2_raw : 1507, chan3_raw : 1017, chan4_raw : 1987, chan5_raw : 1017, chan6_raw : 1503, chan7_raw : 1503, chan8_raw : 1503, rssi : 251}
RAW_IMU {time_usec : 413736600, xacc : -7, yacc : 9, zacc : -1003, xgyro : 1, ygyro : 3, zgyro : -3, xmag : -295, ymag : 304, zmag : 76}
ATTITUDE {time_boot_ms : 416286, roll : -0.00459700264037, pitch : 0.000199438538402, yaw : -2.33764314651, rollspeed : 0.00114249065518, pitchspeed : 0.00310984253883, yawspeed : -0.00318636745214}
GPS_RAW_INT {time_usec : 416341000, fix_type : 3, lat : 139106122, lon : 1004957562, alt : 8660, eph : 259, epv : 65535, vel : 22, cog : 32067, satellites_visible : 6}
VFR_HUD {airspeed : 0.229999989271, groundspeed : 0.229999989271, heading : 226, throttle : 0, alt : 0.140000000596, climb : 0.00999999977648}
GLOBAL_POSITION_INT {time_boot_ms : 416341, lat : 139106122, lon : 1004957563, alt : 8660, relative_alt : 140, vx : 4, vy : 22, vz : -4, hdg : 22609}
SERVO_OUTPUT_RAW {time_usec : 413921802, port : 0, servo1_raw : 1016, servo2_raw : 1016, servo3_raw : 1016, servo4_raw : 1016, servo5_raw : 0, servo6_raw : 0, servo7_raw : 0, servo8_raw : 0}
RC_CHANNELS_RAW {time_boot_ms : 416471, port : 0, chan1_raw : 1472, chan2_raw : 1507, chan3_raw : 1016, chan4_raw : 1988, chan5_raw : 1017, chan6_raw : 1503, chan7_raw : 1503, chan8_raw : 1503, rssi : 250}
RAW_IMU {time_usec : 413964078, xacc : -7, yacc : 10, zacc : -1008, xgyro : 0, ygyro : 3, zgyro : -3, xmag : -290, ymag : 307, zmag : 66}
ATTITUDE {time_boot_ms : 416514, roll : -0.00456928275526, pitch : 0.000362739898264, yaw : -2.33710241318, rollspeed : 0.000606399029493, pitchspeed : 0.00397481024265, yawspeed : -0.00312631204724}
GPS_RAW_INT {time_usec : 416541000, fix_type : 3, lat : 139106120, lon : 1004957567, alt : 8670, eph : 259, epv : 65535, vel : 4, cog : 32067, satellites_visible : 6}
VFR_HUD {airspeed : 0.0499999970198, groundspeed : 0.0499999970198, heading : 226, throttle : 0, alt : 0.129999995232, climb : 0.00999999977648}
GLOBAL_POSITION_INT {time_boot_ms : 416541, lat : 139106121, lon : 1004957565, alt : 8670, relative_alt : 130, vx : -3, vy : 4, vz : 3, hdg : 22609}
SERVO_OUTPUT_RAW {time_usec : 414152459, port : 0, servo1_raw : 1016, servo2_raw : 1016, servo3_raw : 1016, servo4_raw : 1016, servo5_raw : 0, servo6_raw : 0, servo7_raw : 0, servo8_raw : 0}
RC_CHANNELS_RAW {time_boot_ms : 416702, port : 0, chan1_raw : 1472, chan2_raw : 1507, chan3_raw : 1016, chan4_raw : 1988, chan5_raw : 1017, chan6_raw : 1503, chan7_raw : 1503, chan8_raw : 1502, rssi : 231}
RAW_IMU {time_usec : 414191663, xacc : -9, yacc : 8, zacc : -1007, xgyro : 0, ygyro : 3, zgyro : -2, xmag : -294, ymag : 303, zmag : 69}
ATTITUDE {time_boot_ms : 416741, roll : -0.00477419840172, pitch : 0.000449417188065, yaw : -2.33740353584, rollspeed : 0.000806029886007, pitchspeed : 0.00354398787022, yawspeed : -0.00242157652974}
GPS_RAW_INT {time_usec : 416721000, fix_type : 3, lat : 139106118, lon : 1004957572, alt : 8740, eph : 259, epv : 65535, vel : 22, cog : 32067, satellites_visible : 6}
VFR_HUD {airspeed : 0.219999998808, groundspeed : 0.219999998808, heading : 226, throttle : 0, alt : 0.129999995232, climb : 0.00999999977648}
GLOBAL_POSITION_INT {time_boot_ms : 416921, lat : 139106119, lon : 1004957569, alt : 8760, relative_alt : 130, vx : 7, vy : -16, vz : -7, hdg : 22605}
SERVO_OUTPUT_RAW {time_usec : 414377260, port : 0, servo1_raw : 1016, servo2_raw : 1016, servo3_raw : 1016, servo4_raw : 1016, servo5_raw : 0, servo6_raw : 0, servo7_raw : 0, servo8_raw : 0}
RC_CHANNELS_RAW {time_boot_ms : 416927, port : 0, chan1_raw : 1472, chan2_raw : 1507, chan3_raw : 1017, chan4_raw : 1987, chan5_raw : 1017, chan6_raw : 1503, chan7_raw : 1503, chan8_raw : 1503, rssi : 254}
RAW_IMU {time_usec : 414416582, xacc : -9, yacc : 10, zacc : -1002, xgyro : 0, ygyro : 4, zgyro : -1, xmag : -293, ymag : 303, zmag : 71}
ATTITUDE {time_boot_ms : 416966, roll : -0.00457049394026, pitch : 0.000312435440719, yaw : -2.33808350563, rollspeed : 0.000828966498375, pitchspeed : 0.00424921512604, yawspeed : -0.00172651931643}
GPS_RAW_INT {time_usec : 416921000, fix_type : 3, lat : 139106118, lon : 1004957575, alt : 8760, eph : 259, epv : 65535, vel : 18, cog : 32067, satellites_visible : 6}
VFR_HUD {airspeed : 0.179999992251, groundspeed : 0.179999992251, heading : 226, throttle : 0, alt : 0.129999995232, climb : 0.00999999977648}
GLOBAL_POSITION_INT {time_boot_ms : 417121, lat : 139106118, lon : 1004957573, alt : 8790, relative_alt : 130, vx : -12, vy : 16, vz : 12, hdg : 22604}
SERVO_OUTPUT_RAW {time_usec : 414609068, port : 0, servo1_raw : 1016, servo2_raw : 1016, servo3_raw : 1016, servo4_raw : 1016, servo5_raw : 0, servo6_raw : 0, servo7_raw : 0, servo8_raw : 0}
RC_CHANNELS_RAW {time_boot_ms : 417159, port : 0, chan1_raw : 1470, chan2_raw : 1507, chan3_raw : 1016, chan4_raw : 1988, chan5_raw : 1017, chan6_raw : 1503, chan7_raw : 1503, chan8_raw : 1502, rssi : 250}
RAW_IMU {time_usec : 414681022, xacc : -8, yacc : 6, zacc : -1006, xgyro : 1, ygyro : 2, zgyro : -2, xmag : -293, ymag : 304, zmag : 72}
ATTITUDE {time_boot_ms : 417231, roll : -0.00455887243152, pitch : 0.000112093053758, yaw : -2.33817720413, rollspeed : 0.00107446685433, pitchspeed : 0.00276637077332, yawspeed : -0.00285124406219}
GPS_RAW_INT {time_usec : 417330000, fix_type : 3, lat : 139106111, lon : 1004957584, alt : 8890, eph : 259, epv : 65535, vel : 11, cog : 32067, satellites_visible : 6}
VFR_HUD {airspeed : 0.109999999404, groundspeed : 0.109999999404, heading : 226, throttle : 0, alt : 0.0, climb : 0.0}
GLOBAL_POSITION_INT {time_boot_ms : 417330, lat : 139106114, lon : 1004957581, alt : 8890, relative_alt : 0, vx : -7, vy : 8, vz : 7, hdg : 22603}
SERVO_OUTPUT_RAW {time_usec : 414881236, port : 0, servo1_raw : 1016, servo2_raw : 1016, servo3_raw : 1016, servo4_raw : 1016, servo5_raw : 0, servo6_raw : 0, servo7_raw : 0, servo8_raw : 0}
RC_CHANNELS_RAW {time_boot_ms : 417431, port : 0, chan1_raw : 1469, chan2_raw : 1507, chan3_raw : 1017, chan4_raw : 1987, chan5_raw : 1018, chan6_raw : 1502, chan7_raw : 1504, chan8_raw : 1502, rssi : 248}
RAW_IMU {time_usec : 414901059, xacc : -7, yacc : 8, zacc : -1005, xgyro : 1, ygyro : 3, zgyro : -2, xmag : -295, ymag : 303, zmag : 73}
ATTITUDE {time_boot_ms : 417473, roll : -0.00439256057143, pitch : 0.000209777150303, yaw : -2.33840155602, rollspeed : 0.000560522079468, pitchspeed : 0.00342280045152, yawspeed : -0.00277079641819}
GPS_RAW_INT {time_usec : 417530000, fix_type : 3, lat : 139106112, lon : 1004957594, alt : 8810, eph : 259, epv : 65535, vel : 61, cog : 32067, satellites_visible : 6}
VFR_HUD {airspeed : 0.610000014305, groundspeed : 0.610000014305, heading : 226, throttle : 0, alt : 0.0, climb : 0.00999999977648}
GLOBAL_POSITION_INT {time_boot_ms : 417530, lat : 139106112, lon : 1004957587, alt : 8810, relative_alt : 0, vx : 17, vy : 58, vz : -17, hdg : 22602}
SERVO_OUTPUT_RAW {time_usec : 415106452, port : 0, servo1_raw : 1016, servo2_raw : 1016, servo3_raw : 1016, servo4_raw : 1016, servo5_raw : 0, servo6_raw : 0, servo7_raw : 0, servo8_raw : 0}
RC_CHANNELS_RAW {time_boot_ms : 417656, port : 0, chan1_raw : 1469, chan2_raw : 1507, chan3_raw : 1017, chan4_raw : 1988, chan5_raw : 1017, chan6_raw : 1502, chan7_raw : 1504, chan8_raw : 1502, rssi : 244}
RAW_IMU {time_usec : 415125977, xacc : -7, yacc : 8, zacc : -1009, xgyro : 0, ygyro : 4, zgyro : -3, xmag : -293, ymag : 303, zmag : 69}
ATTITUDE {time_boot_ms : 417695, roll : -0.00633172970265, pitch : 0.0051561803557, yaw : -2.33854484558, rollspeed : 0.000683546066284, pitchspeed : 0.00406397134066, yawspeed : -0.00263644754887}
GPS_RAW_INT {time_usec : 417730000, fix_type : 3, lat : 139106114, lon : 1004957599, alt : 8890, eph : 259, epv : 65535, vel : 38, cog : 32067, satellites_visible : 6}
VFR_HUD {airspeed : 0.379999995232, groundspeed : 0.379999995232, heading : 226, throttle : 0, alt : 0.00999999977648, climb : 0.00999999977648}
GLOBAL_POSITION_INT {time_boot_ms : 417730, lat : 139106112, lon : 1004957593, alt : 8890, relative_alt : 10, vx : 32, vy : -21, vz : -32, hdg : 22600}
SERVO_OUTPUT_RAW {time_usec : 415325874, port : 0, servo1_raw : 1016, servo2_raw : 1016, servo3_raw : 1016, servo4_raw : 1016, servo5_raw : 0, servo6_raw : 0, servo7_raw : 0, servo8_raw : 0}
RC_CHANNELS_RAW {time_boot_ms : 417875, port : 0, chan1_raw : 1469, chan2_raw : 1507, chan3_raw : 1017, chan4_raw : 1987, chan5_raw : 1017, chan6_raw : 1503, chan7_raw : 1503, chan8_raw : 1503, rssi : 250}
RAW_IMU {time_usec : 415346877, xacc : -8, yacc : 9, zacc : -1004, xgyro : 1, ygyro : 3, zgyro : -2, xmag : -296, ymag : 302, zmag : 74}
ATTITUDE {time_boot_ms : 417916, roll : -0.00183365039993, pitch : 0.00277555105276, yaw : -2.33894252777, rollspeed : -0.00045533105731, pitchspeed : 0.00395013764501, yawspeed : -0.00254738517106}
GPS_RAW_INT {time_usec : 417931000, fix_type : 3, lat : 139106115, lon : 1004957602, alt : 8910, eph : 259, epv : 65535, vel : 11, cog : 32067, satellites_visible : 6}
VFR_HUD {airspeed : 0.109999999404, groundspeed : 0.109999999404, heading : 225, throttle : 0, alt : 0.019999999553, climb : 0.019999999553}
GLOBAL_POSITION_INT {time_boot_ms : 417931, lat : 139106112, lon : 1004957598, alt : 8910, relative_alt : 30, vx : 1, vy : 11, vz : -1, hdg : 22597}
SERVO_OUTPUT_RAW {time_usec : 415546362, port : 0, servo1_raw : 1016, servo2_raw : 1016, servo3_raw : 1016, servo4_raw : 1016, servo5_raw : 0, servo6_raw : 0, servo7_raw : 0, servo8_raw : 0}
RC_CHANNELS_RAW {time_boot_ms : 418096, port : 0, chan1_raw : 1469, chan2_raw : 1507, chan3_raw : 1017, chan4_raw : 1987, chan5_raw : 1017, chan6_raw : 1503, chan7_raw : 1503, chan8_raw : 1503, rssi : 229}
RAW_IMU {time_usec : 415567015, xacc : -10, yacc : 8, zacc : -1003, xgyro : 1, ygyro : 3, zgyro : -2, xmag : -295, ymag : 302, zmag : 72}
ATTITUDE {time_boot_ms : 418135, roll : -0.00665332656354, pitch : 0.00235930900089, yaw : -2.33938598633, rollspeed : -3.16016376019e-05, pitchspeed : 0.00395216047764, yawspeed : -0.00363909080625}
GPS_RAW_INT {time_usec : 418130000, fix_type : 3, lat : 139106116, lon : 1004957600, alt : 8840, eph : 259, epv : 65535, vel : 53, cog : 32067, satellites_visible : 6}
VFR_HUD {airspeed : 0.539999961853, groundspeed : 0.539999961853, heading : 225, throttle : 0, alt : 0.0299999993294, climb : 0.019999999553}
GLOBAL_POSITION_INT {time_boot_ms : 418130, lat : 139106112, lon : 1004957602, alt : 8800, relative_alt : 30, vx : 12, vy : -52, vz : -12, hdg : 22595}
SERVO_OUTPUT_RAW {time_usec : 415766438, port : 0, servo1_raw : 1016, servo2_raw : 1016, servo3_raw : 1016, servo4_raw : 1016, servo5_raw : 0, servo6_raw : 0, servo7_raw : 0, servo8_raw : 0}
RC_CHANNELS_RAW {time_boot_ms : 418316, port : 0, chan1_raw : 1470, chan2_raw : 1506, chan3_raw : 1017, chan4_raw : 1988, chan5_raw : 1017, chan6_raw : 1503, chan7_raw : 1503, chan8_raw : 1503, rssi : 250}
RAW_IMU {time_usec : 415785926, xacc : -7, yacc : 8, zacc : -1006, xgyro : 1, ygyro : 3, zgyro : -2, xmag : -293, ymag : 302, zmag : 67}
ATTITUDE {time_boot_ms : 418355, roll : -0.00180687825195, pitch : -0.00120173604228, yaw : -2.33966422081, rollspeed : 0.00190667808056, pitchspeed : 0.00342169776559, yawspeed : -0.00232541374862}
GPS_RAW_INT {time_usec : 418331000, fix_type : 3, lat : 139106116, lon : 1004957599, alt : 8800, eph : 259, epv : 65535, vel : 7, cog : 32067, satellites_visible : 6}
VFR_HUD {airspeed : 0.070000000298, groundspeed : 0.070000000298, heading : 225, throttle : 0, alt : 0.019999999553, climb : 0.00999999977648}
GLOBAL_POSITION_INT {time_boot_ms : 418530, lat : 139106113, lon : 1004957605, alt : 8820, relative_alt : 20, vx : -7, vy : 2, vz : 7, hdg : 22594}
SERVO_OUTPUT_RAW {time_usec : 415986029, port : 0, servo1_raw : 1016, servo2_raw : 1016, servo3_raw : 1016, servo4_raw : 1016, servo5_raw : 0, servo6_raw : 0, servo7_raw : 0, servo8_raw : 0}
RC_CHANNELS_RAW {time_boot_ms : 418536, port : 0, chan1_raw : 1470, chan2_raw : 1507, chan3_raw : 1016, chan4_raw : 1988, chan5_raw : 1017, chan6_raw : 1503, chan7_raw : 1503, chan8_raw : 1503, rssi : 208}
RAW_IMU {time_usec : 416005857, xacc : -9, yacc : 9, zacc : -1006, xgyro : 0, ygyro : 3, zgyro : -2, xmag : -287, ymag : 304, zmag : 54}
ATTITUDE {time_boot_ms : 418575, roll : -0.00538056856021, pitch : 0.000935795367695, yaw : -2.33985972404, rollspeed : 0.000830583274364, pitchspeed : 0.00360817089677, yawspeed : -0.00267945416272}
GPS_RAW_INT {time_usec : 418530000, fix_type : 3, lat : 139106114, lon : 1004957601, alt : 8820, eph : 259, epv : 65535, vel : 7, cog : 32067, satellites_visible : 6}
VFR_HUD {airspeed : 0.070000000298, groundspeed : 0.070000000298, heading : 225, throttle : 0, alt : 0.019999999553, climb : 0.019999999553}
GLOBAL_POSITION_INT {time_boot_ms : 418730, lat : 139106113, lon : 1004957609, alt : 8910, relative_alt : 20, vx : 1, vy : -9, vz : -1, hdg : 22593}
SERVO_OUTPUT_RAW {time_usec : 416205932, port : 0, servo1_raw : 1016, servo2_raw : 1016, servo3_raw : 1016, servo4_raw : 1016, servo5_raw : 0, servo6_raw : 0, servo7_raw : 0, servo8_raw : 0}
RC_CHANNELS_RAW {time_boot_ms : 418755, port : 0, chan1_raw : 1470, chan2_raw : 1507, chan3_raw : 1017, chan4_raw : 1987, chan5_raw : 1017, chan6_raw : 1503, chan7_raw : 1503, chan8_raw : 1503, rssi : 249}
RAW_IMU {time_usec : 416225950, xacc : -9, yacc : 8, zacc : -1005, xgyro : 1, ygyro : 3, zgyro : -3, xmag : -292, ymag : 303, zmag : 61}
ATTITUDE {time_boot_ms : 418795, roll : -0.00627355603501, pitch : 0.000629254209343, yaw : -2.34008646011, rollspeed : 0.00088507682085, pitchspeed : 0.00274953618646, yawspeed : -0.00265228375793}
GPS_RAW_INT {time_usec : 418730000, fix_type : 3, lat : 139106113, lon : 1004957603, alt : 8910, eph : 259, epv : 65535, vel : 9, cog : 32067, satellites_visible : 6}
VFR_HUD {airspeed : 0.0899999961257, groundspeed : 0.0899999961257, heading : 225, throttle : 0, alt : 0.019999999553, climb : 0.019999999553}
GLOBAL_POSITION_INT {time_boot_ms : 418931, lat : 139106113, lon : 1004957612, alt : 8870, relative_alt : 20, vx : -19, vy : 48, vz : 19, hdg : 22591}
SERVO_OUTPUT_RAW {time_usec : 416426511, port : 0, servo1_raw : 1016, servo2_raw : 1016, servo3_raw : 1016, servo4_raw : 1016, servo5_raw : 0, servo6_raw : 0, servo7_raw : 0, servo8_raw : 0}
RC_CHANNELS_RAW {time_boot_ms : 418976, port : 0, chan1_raw : 1470, chan2_raw : 1506, chan3_raw : 1017, chan4_raw : 1988, chan5_raw : 1017, chan6_raw : 1503, chan7_raw : 1503, chan8_raw : 1502, rssi : 254}
RAW_IMU {time_usec : 416445819, xacc : -7, yacc : 7, zacc : -1006, xgyro : 0, ygyro : 3, zgyro : -2, xmag : -293, ymag : 302, zmag : 73}
ATTITUDE {time_boot_ms : 419015, roll : -0.00862508546561, pitch : 0.00201233709231, yaw : -2.34038591385, rollspeed : 0.00023977085948, pitchspeed : 0.00432609021664, yawspeed : -0.00261115655303}
GPS_RAW_INT {time_usec : 418931000, fix_type : 3, lat : 139106108, lon : 1004957613, alt : 8900, eph : 259, epv : 65535, vel : 52, cog : 32067, satellites_visible : 6}
VFR_HUD {airspeed : 0.340000003576, groundspeed : 0.340000003576, heading : 225, throttle : 0, alt : 0.0299999993294, climb : 0.019999999553}
RAW_IMU {time_usec : 416665952, xacc : -9, yacc : 8, zacc : -1006, xgyro : 0, ygyro : 4, zgyro : -2, xmag : -295, ymag : 303, zmag : 72}
GLOBAL_POSITION_INT {time_boot_ms : 419130, lat : 139106112, lon : 1004957615, alt : 8900, relative_alt : 40, vx : 14, vy : -31, vz : -14, hdg : 22590}
SERVO_OUTPUT_RAW {time_usec : 416666232, port : 0, servo1_raw : 1016, servo2_raw : 1016, servo3_raw : 1016, servo4_raw : 1016, servo5_raw : 0, servo6_raw : 0, servo7_raw : 0, servo8_raw : 0}
RC_CHANNELS_RAW {time_boot_ms : 419216, port : 0, chan1_raw : 1472, chan2_raw : 1507, chan3_raw : 1017, chan4_raw : 1987, chan5_raw : 1017, chan6_raw : 1503, chan7_raw : 1503, chan8_raw : 1503, rssi : 249}
ATTITUDE {time_boot_ms : 419255, roll : -0.00950250029564, pitch : 0.00262994715013, yaw : -2.34060287476, rollspeed : 0.000874534249306, pitchspeed : 0.00335363298655, yawspeed : -0.00245877355337}
GPS_RAW_INT {time_usec : 419130000, fix_type : 3, lat : 139106111, lon : 1004957610, alt : 9050, eph : 259, epv : 65535, vel : 34, cog : 32067, satellites_visible : 6}
VFR_HUD {airspeed : 0.569999992847, groundspeed : 0.569999992847, heading : 225, throttle : 0, alt : 0.0499999970198, climb : 0.019999999553}
RAW_IMU {time_usec : 416885960, xacc : -9, yacc : 9, zacc : -1005, xgyro : 2, ygyro : 4, zgyro : -2, xmag : -290, ymag : 302, zmag : 62}
GLOBAL_POSITION_INT {time_boot_ms : 419330, lat : 139106110, lon : 1004957619, alt : 9050, relative_alt : 50, vx : 34, vy : -45, vz : -34, hdg : 22589}
SERVO_OUTPUT_RAW {time_usec : 416886488, port : 0, servo1_raw : 1016, servo2_raw : 1016, servo3_raw : 1016, servo4_raw : 1016, servo5_raw : 0, servo6_raw : 0, servo7_raw : 0, servo8_raw : 0}
RC_CHANNELS_RAW {time_boot_ms : 419456, port : 0, chan1_raw : 1472, chan2_raw : 1506, chan3_raw : 1017, chan4_raw : 1988, chan5_raw : 1017, chan6_raw : 1503, chan7_raw : 1503, chan8_raw : 1502, rssi : 236}
ATTITUDE {time_boot_ms : 419495, roll : -0.00544200185686, pitch : 0.00198823167011, yaw : -2.34086418152, rollspeed : 0.000785294920206, pitchspeed : 0.00376121327281, yawspeed : -0.00310874730349}
GPS_RAW_INT {time_usec : 419531000, fix_type : 3, lat : 139106113, lon : 1004957612, alt : 9130, eph : 259, epv : 65535, vel : 25, cog : 32067, satellites_visible : 6}
VFR_HUD {airspeed : 0.25, groundspeed : 0.25, heading : 225, throttle : 0, alt : 0.0499999970198, climb : 0.019999999553}
RAW_IMU {time_usec : 417105987, xacc : -9, yacc : 7, zacc : -1007, xgyro : 0, ygyro : 3, zgyro : -3, xmag : -289, ymag : 301, zmag : 58}
GLOBAL_POSITION_INT {time_boot_ms : 419531, lat : 139106110, lon : 1004957622, alt : 9130, relative_alt : 40, vx : 19, vy : 14, vz : -19, hdg : 22588}
SERVO_OUTPUT_RAW {time_usec : 417106269, port : 0, servo1_raw : 1016, servo2_raw : 1016, servo3_raw : 1016, servo4_raw : 1016, servo5_raw : 0, servo6_raw : 0, servo7_raw : 0, servo8_raw : 0}
RC_CHANNELS_RAW {time_boot_ms : 419656, port : 0, chan1_raw : 1471, chan2_raw : 1507, chan3_raw : 1017, chan4_raw : 1987, chan5_raw : 1018, chan6_raw : 1502, chan7_raw : 1504, chan8_raw : 1502, rssi : 249}
ATTITUDE {time_boot_ms : 419716, roll : -0.0101282438263, pitch : 0.00542836915702, yaw : -2.34107041359, rollspeed : 0.00145414844155, pitchspeed : 0.00404733046889, yawspeed : -0.00280351936817}
GPS_RAW_INT {time_usec : 419731000, fix_type : 3, lat : 139106113, lon : 1004957616, alt : 9190, eph : 259, epv : 65535, vel : 9, cog : 32067, satellites_visible : 6}
VFR_HUD {airspeed : 0.0999999940395, groundspeed : 0.0999999940395, heading : 225, throttle : 0, alt : 0.0399999991059, climb : 0.019999999553}
RAW_IMU {time_usec : 417326037, xacc : -8, yacc : 7, zacc : -1005, xgyro : 1, ygyro : 3, zgyro : -3, xmag : -293, ymag : 303, zmag : 69}
GLOBAL_POSITION_INT {time_boot_ms : 419731, lat : 139106110, lon : 1004957625, alt : 9190, relative_alt : 50, vx : -1, vy : -9, vz : 1, hdg : 22586}
SERVO_OUTPUT_RAW {time_usec : 417326334, port : 0, servo1_raw : 1016, servo2_raw : 1016, servo3_raw : 1016, servo4_raw : 1016, servo5_raw : 0, servo6_raw : 0, servo7_raw : 0, servo8_raw : 0}
RC_CHANNELS_RAW {time_boot_ms : 419876, port : 0, chan1_raw : 1472, chan2_raw : 1507, chan3_raw : 1016, chan4_raw : 1988, chan5_raw : 1017, chan6_raw : 1503, chan7_raw : 1503, chan8_raw : 1502, rssi : 242}
ATTITUDE {time_boot_ms : 419935, roll : -0.0109228473157, pitch : 0.00311744958162, yaw : -2.34135484695, rollspeed : 0.00181964784861, pitchspeed : 0.00368707627058, yawspeed : -0.00259426422417}
GPS_RAW_INT {time_usec : 419930000, fix_type : 3, lat : 139106112, lon : 1004957618, alt : 9060, eph : 259, epv : 65535, vel : 14, cog : 32067, satellites_visible : 6}
VFR_HUD {airspeed : 0.149999991059, groundspeed : 0.149999991059, heading : 225, throttle : 0, alt : 0.0599999986589, climb : 0.0299999993294}
RAW_IMU {time_usec : 417546060, xacc : -8, yacc : 11, zacc : -1005, xgyro : 1, ygyro : 3, zgyro : -3, xmag : -295, ymag : 305, zmag : 73}
GLOBAL_POSITION_INT {time_boot_ms : 419930, lat : 139106110, lon : 1004957628, alt : 9060, relative_alt : 60, vx : -14, vy : 4, vz : 14, hdg : 22585}
SERVO_OUTPUT_RAW {time_usec : 417546357, port : 0, servo1_raw : 1016, servo2_raw : 1016, servo3_raw : 1016, servo4_raw : 1016, servo5_raw : 0, servo6_raw : 0, servo7_raw : 0, servo8_raw : 0}
RC_CHANNELS_RAW {time_boot_ms : 420096, port : 0, chan1_raw : 1472, chan2_raw : 1507, chan3_raw : 1016, chan4_raw : 1988, chan5_raw : 1017, chan6_raw : 1503, chan7_raw : 1503, chan8_raw : 1502, rssi : 227}
ATTITUDE {time_boot_ms : 420156, roll : -0.0128448493779, pitch : 0.00334230926819, yaw : -2.34152317047, rollspeed : 0.000863205641508, pitchspeed : 0.00325056910515, yawspeed : -0.00334028527141}
GPS_RAW_INT {time_usec : 420131000, fix_type : 3, lat : 139106111, lon : 1004957620, alt : 9060, eph : 259, epv : 65535, vel : 8, cog : 32067, satellites_visible : 6}
VFR_HUD {airspeed : 0.0799999982119, groundspeed : 0.0799999982119, heading : 225, throttle : 0, alt : 0.0599999986589, climb : 0.0299999993294}
RAW_IMU {time_usec : 417766485, xacc : -8, yacc : 10, zacc : -1006, xgyro : 0, ygyro : 2, zgyro : -2, xmag : -296, ymag : 303, zmag : 76}
GLOBAL_POSITION_INT {time_boot_ms : 420131, lat : 139106110, lon : 1004957630, alt : 9100, relative_alt : 60, vx : 4, vy : -7, vz : -4, hdg : 22584}
SERVO_OUTPUT_RAW {time_usec : 417766814, port : 0, servo1_raw : 1016, servo2_raw : 1016, servo3_raw : 1016, servo4_raw : 1016, servo5_raw : 0, servo6_raw : 0, servo7_raw : 0, servo8_raw : 0}
RC_CHANNELS_RAW {time_boot_ms : 420316, port : 0, chan1_raw : 1472, chan2_raw : 1506, chan3_raw : 1017, chan4_raw : 1988, chan5_raw : 1017, chan6_raw : 1503, chan7_raw : 1503, chan8_raw : 1502, rssi : 247}
ATTITUDE {time_boot_ms : 420378, roll : -0.011969816871, pitch : 0.00424868846312, yaw : -2.34161329269, rollspeed : 0.00147116929293, pitchspeed : 0.0033592954278, yawspeed : -0.00306889787316}
GPS_RAW_INT {time_usec : 420330000, fix_type : 3, lat : 139106109, lon : 1004957627, alt : 9100, eph : 259, epv : 65535, vel : 31, cog : 32067, satellites_visible : 6}
VFR_HUD {airspeed : 0.310000002384, groundspeed : 0.310000002384, heading : 225, throttle : 0, alt : 0.0599999986589, climb : 0.019999999553}
RAW_IMU {time_usec : 417989423, xacc : -8, yacc : 8, zacc : -1008, xgyro : 1, ygyro : 3, zgyro : -2, xmag : -290, ymag : 304, zmag : 65}
GLOBAL_POSITION_INT {time_boot_ms : 420530, lat : 139106109, lon : 1004957636, alt : 9040, relative_alt : 60, vx : 14, vy : -9, vz : -14, hdg : 22583}
SERVO_OUTPUT_RAW {time_usec : 417989635, port : 0, servo1_raw : 1016, servo2_raw : 1016, servo3_raw : 1016, servo4_raw : 1016, servo5_raw : 0, servo6_raw : 0, servo7_raw : 0, servo8_raw : 0}
RC_CHANNELS_RAW {time_boot_ms : 420539, port : 0, chan1_raw : 1471, chan2_raw : 1507, chan3_raw : 1017, chan4_raw : 1987, chan5_raw : 1017, chan6_raw : 1503, chan7_raw : 1503, chan8_raw : 1503, rssi : 244}
ATTITUDE {time_boot_ms : 420600, roll : -0.0138054946437, pitch : 0.00538220908493, yaw : -2.34180665016, rollspeed : 0.000852771103382, pitchspeed : 0.00304973870516, yawspeed : -0.00244874320924}
GPS_RAW_INT {time_usec : 420530000, fix_type : 3, lat : 139106109, lon : 1004957631, alt : 9040, eph : 259, epv : 65535, vel : 18, cog : 32067, satellites_visible : 6}
VFR_HUD {airspeed : 0.179999992251, groundspeed : 0.179999992251, heading : 225, throttle : 0, alt : 0.0599999986589, climb : 0.019999999553}
RAW_IMU {time_usec : 418211653, xacc : -8, yacc : 9, zacc : -1006, xgyro : 1, ygyro : 2, zgyro : -2, xmag : -294, ymag : 302, zmag : 72}
GLOBAL_POSITION_INT {time_boot_ms : 420731, lat : 139106108, lon : 1004957641, alt : 9020, relative_alt : 60, vx : 9, vy : -33, vz : -9, hdg : 22582}
SERVO_OUTPUT_RAW {time_usec : 418211799, port : 0, servo1_raw : 1016, servo2_raw : 1016, servo3_raw : 1016, servo4_raw : 1016, servo5_raw : 0, servo6_raw : 0, servo7_raw : 0, servo8_raw : 0}
RC_CHANNELS_RAW {time_boot_ms : 420761, port : 0, chan1_raw : 1472, chan2_raw : 1506, chan3_raw : 1017, chan4_raw : 1988, chan5_raw : 1017, chan6_raw : 1502, chan7_raw : 1504, chan8_raw : 1502, rssi : 245}
ATTITUDE {time_boot_ms : 420820, roll : -0.0110723692924, pitch : 0.00406640581787, yaw : -2.34210515022, rollspeed : 0.00139007344842, pitchspeed : 0.00278389453888, yawspeed : -0.00318766757846}
GPS_RAW_INT {time_usec : 420731000, fix_type : 3, lat : 139106111, lon : 1004957629, alt : 9020, eph : 259, epv : 65535, vel : 35, cog : 32067, satellites_visible : 6}
VFR_HUD {airspeed : 0.439999997616, groundspeed : 0.439999997616, heading : 225, throttle : 0, alt : 0.0499999970198, climb : 0.019999999553}
RAW_IMU {time_usec : 418431709, xacc : -8, yacc : 9, zacc : -1006, xgyro : 0, ygyro : 3, zgyro : -2, xmag : -292, ymag : 303, zmag : 70}
GLOBAL_POSITION_INT {time_boot_ms : 420930, lat : 139106107, lon : 1004957644, alt : 8950, relative_alt : 50, vx : -8, vy : -42, vz : 8, hdg : 22580}
SERVO_OUTPUT_RAW {time_usec : 418431861, port : 0, servo1_raw : 1016, servo2_raw : 1016, servo3_raw : 1016, servo4_raw : 1016, servo5_raw : 0, servo6_raw : 0, servo7_raw : 0, servo8_raw : 0}
RC_CHANNELS_RAW {time_boot_ms : 420981, port : 0, chan1_raw : 1471, chan2_raw : 1507, chan3_raw : 1017, chan4_raw : 1987, chan5_raw : 1017, chan6_raw : 1503, chan7_raw : 1503, chan8_raw : 1503, rssi : 236}
ATTITUDE {time_boot_ms : 421041, roll : -0.0109711615369, pitch : 0.0020741187036, yaw : -2.34224963188, rollspeed : 0.00115925818682, pitchspeed : 0.00373150408268, yawspeed : -0.00343479961157}
GPS_RAW_INT {time_usec : 420930000, fix_type : 3, lat : 139106111, lon : 1004957623, alt : 8950, eph : 259, epv : 65535, vel : 44, cog : 32067, satellites_visible : 6}
VFR_HUD {airspeed : 0.140000000596, groundspeed : 0.140000000596, heading : 225, throttle : 0, alt : 0.0599999986589, climb : 0.0299999993294}
RAW_IMU {time_usec : 418655943, xacc : -9, yacc : 10, zacc : -1004, xgyro : 0, ygyro : 3, zgyro : -2, xmag : -293, ymag : 304, zmag : 72}
GLOBAL_POSITION_INT {time_boot_ms : 421130, lat : 139106107, lon : 1004957645, alt : 9040, relative_alt : 60, vx : -14, vy : -4, vz : 14, hdg : 22580}
SERVO_OUTPUT_RAW {time_usec : 418656277, port : 0, servo1_raw : 1016, servo2_raw : 1016, servo3_raw : 1016, servo4_raw : 1016, servo5_raw : 0, servo6_raw : 0, servo7_raw : 0, servo8_raw : 0}
RC_CHANNELS_RAW {time_boot_ms : 421206, port : 0, chan1_raw : 1472, chan2_raw : 1507, chan3_raw : 1016, chan4_raw : 1988, chan5_raw : 1017, chan6_raw : 1503, chan7_raw : 1503, chan8_raw : 1502, rssi : 249}
ATTITUDE {time_boot_ms : 421265, roll : -0.0133061539382, pitch : 0.00281756324694, yaw : -2.3423910141, rollspeed : 0.0010634213686, pitchspeed : 0.00323435664177, yawspeed : -0.00253930687904}
GPS_RAW_INT {time_usec : 421130000, fix_type : 3, lat : 139106108, lon : 1004957622, alt : 9040, eph : 259, epv : 65535, vel : 14, cog : 32067, satellites_visible : 6}
VFR_HUD {airspeed : 0.310000002384, groundspeed : 0.310000002384, heading : 225, throttle : 0, alt : 0.0599999986589, climb : 0.019999999553}
RAW_IMU {time_usec : 418876869, xacc : -9, yacc : 9, zacc : -1006, xgyro : 1, ygyro : 3, zgyro : -3, xmag : -294, ymag : 304, zmag : 73}
ATTITUDE {time_boot_ms : 421485, roll : -0.0128841912374, pitch : 0.00662474986166, yaw : -2.34245896339, rollspeed : 0.00113539025187, pitchspeed : 0.00299639999866, yawspeed : -0.00287811644375}
GPS_RAW_INT {time_usec : 421330000, fix_type : 3, lat : 139106114, lon : 1004957623, alt : 9090, eph : 259, epv : 65535, vel : 31, cog : 32067, satellites_visible : 6}
VFR_HUD {airspeed : 0.329999983311, groundspeed : 0.329999983311, heading : 225, throttle : 0, alt : 0.070000000298, climb : 0.0299999993294}
RAW_IMU {time_usec : 419095876, xacc : -8, yacc : 9, zacc : -1006, xgyro : 1, ygyro : 3, zgyro : -2, xmag : -294, ymag : 301, zmag : 72}
GLOBAL_POSITION_INT {time_boot_ms : 421530, lat : 139106106, lon : 1004957646, alt : 9090, relative_alt : 70, vx : 14, vy : -29, vz : -14, hdg : 22578}
SERVO_OUTPUT_RAW {time_usec : 419096082, port : 0, servo1_raw : 1016, servo2_raw : 1016, servo3_raw : 1016, servo4_raw : 1016, servo5_raw : 0, servo6_raw : 0, servo7_raw : 0, servo8_raw : 0}
RC_CHANNELS_RAW {time_boot_ms : 421646, port : 0, chan1_raw : 1472, chan2_raw : 1507, chan3_raw : 1017, chan4_raw : 1987, chan5_raw : 1017, chan6_raw : 1503, chan7_raw : 1503, chan8_raw : 1503, rssi : 217}
ATTITUDE {time_boot_ms : 421706, roll : -0.0109780570492, pitch : 0.00443080905825, yaw : -2.34264850616, rollspeed : 0.00170616433024, pitchspeed : 0.00342204794288, yawspeed : -0.00233641266823}
GPS_RAW_INT {time_usec : 421730000, fix_type : 3, lat : 139106116, lon : 1004957620, alt : 9090, eph : 259, epv : 65535, vel : 22, cog : 32067, satellites_visible : 6}
VFR_HUD {airspeed : 0.219999998808, groundspeed : 0.219999998808, heading : 225, throttle : 0, alt : 0.0599999986589, climb : 0.019999999553}
RAW_IMU {time_usec : 419315940, xacc : -5, yacc : 10, zacc : -1007, xgyro : 0, ygyro : 3, zgyro : -2, xmag : -289, ymag : 302, zmag : 65}
GLOBAL_POSITION_INT {time_boot_ms : 421730, lat : 139106107, lon : 1004957646, alt : 9090, relative_alt : 60, vx : 2, vy : -22, vz : -2, hdg : 22577}
SERVO_OUTPUT_RAW {time_usec : 419316212, port : 0, servo1_raw : 1016, servo2_raw : 1016, servo3_raw : 1016, servo4_raw : 1016, servo5_raw : 0, servo6_raw : 0, servo7_raw : 0, servo8_raw : 0}
RC_CHANNELS_RAW {time_boot_ms : 421865, port : 0, chan1_raw : 1472, chan2_raw : 1507, chan3_raw : 1016, chan4_raw : 1501, chan5_raw : 1017, chan6_raw : 1503, chan7_raw : 1503, chan8_raw : 1503, rssi : 254}
ATTITUDE {time_boot_ms : 421926, roll : -0.0125355757773, pitch : 0.00380991538987, yaw : -2.34284710884, rollspeed : 0.00135422870517, pitchspeed : 0.00265822559595, yawspeed : -0.00205163657665}
GPS_RAW_INT {time_usec : 421931000, fix_type : 3, lat : 139106116, lon : 1004957622, alt : 9100, eph : 259, epv : 65535, vel : 19, cog : 32067, satellites_visible : 6}
VFR_HUD {airspeed : 0.199999988079, groundspeed : 0.199999988079, heading : 225, throttle : 0, alt : 0.0399999991059, climb : 0.019999999553}
RAW_IMU {time_usec : 419536289, xacc : -9, yacc : 9, zacc : -1006, xgyro : 0, ygyro : 2, zgyro : -2, xmag : -294, ymag : 304, zmag : 72}
GLOBAL_POSITION_INT {time_boot_ms : 421931, lat : 139106108, lon : 1004957646, alt : 9100, relative_alt : 40, vx : 0, vy : 19, vz : 0, hdg : 22576}
SERVO_OUTPUT_RAW {time_usec : 419536602, port : 0, servo1_raw : 1016, servo2_raw : 1016, servo3_raw : 1016, servo4_raw : 1016, servo5_raw : 0, servo6_raw : 0, servo7_raw : 0, servo8_raw : 0}
RC_CHANNELS_RAW {time_boot_ms : 422086, port : 0, chan1_raw : 1472, chan2_raw : 1506, chan3_raw : 1017, chan4_raw : 1499, chan5_raw : 1017, chan6_raw : 1503, chan7_raw : 1503, chan8_raw : 1502, rssi : 251}
ATTITUDE {time_boot_ms : 422145, roll : -0.0156442914158, pitch : 0.00658749509603, yaw : -2.34299564362, rollspeed : 0.00103161484003, pitchspeed : 0.00352942198515, yawspeed : -0.00188702717423}
GPS_RAW_INT {time_usec : 422130000, fix_type : 3, lat : 139106117, lon : 1004957631, alt : 9240, eph : 259, epv : 65535, vel : 45, cog : 32067, satellites_visible : 6}
VFR_HUD {airspeed : 0.459999978542, groundspeed : 0.459999978542, heading : 225, throttle : 0, alt : 0.0299999993294, climb : 0.00999999977648}
RAW_IMU {time_usec : 419761290, xacc : -4, yacc : -12, zacc : -1019, xgyro : 1, ygyro : -2, zgyro : -44, xmag : -294, ymag : 304, zmag : 73}
GLOBAL_POSITION_INT {time_boot_ms : 422130, lat : 139106109, lon : 1004957647, alt : 9350, relative_alt : 30, vx : 17, vy : 42, vz : -17, hdg : 22573}
SERVO_OUTPUT_RAW {time_usec : 419761453, port : 0, servo1_raw : 1273, servo2_raw : 1281, servo3_raw : 1142, servo4_raw : 1215, servo5_raw : 0, servo6_raw : 0, servo7_raw : 0, servo8_raw : 0}
RC_CHANNELS_RAW {time_boot_ms : 422311, port : 0, chan1_raw : 1472, chan2_raw : 1506, chan3_raw : 1065, chan4_raw : 1500, chan5_raw : 1017, chan6_raw : 1503, chan7_raw : 1503, chan8_raw : 1503, rssi : 247}
ATTITUDE {time_boot_ms : 422371, roll : -0.0166230164468, pitch : 0.00871005561203, yaw : -2.34258031845, rollspeed : 0.00382660329342, pitchspeed : 0.00533888116479, yawspeed : 0.13386772573}
GPS_RAW_INT {time_usec : 422331000, fix_type : 3, lat : 139106116, lon : 1004957642, alt : 9350, eph : 259, epv : 65535, vel : 47, cog : 32067, satellites_visible : 6}
VFR_HUD {airspeed : 0.469999998808, groundspeed : 0.469999998808, heading : 226, throttle : 16, alt : 0.0399999991059, climb : 0.00999999977648}
RAW_IMU {time_usec : 419981788, xacc : 12, yacc : 31, zacc : -1041, xgyro : -27, ygyro : 24, zgyro : -82, xmag : -295, ymag : 317, zmag : 68}
GLOBAL_POSITION_INT {time_boot_ms : 422531, lat : 139106110, lon : 1004957650, alt : 9300, relative_alt : 40, vx : -4, vy : -3, vz : 4, hdg : 22617}
SERVO_OUTPUT_RAW {time_usec : 419982007, port : 0, servo1_raw : 1261, servo2_raw : 1282, servo3_raw : 1142, servo4_raw : 1204, servo5_raw : 0, servo6_raw : 0, servo7_raw : 0, servo8_raw : 0}
RC_CHANNELS_RAW {time_boot_ms : 422531, port : 0, chan1_raw : 1472, chan2_raw : 1506, chan3_raw : 1086, chan4_raw : 1499, chan5_raw : 1017, chan6_raw : 1503, chan7_raw : 1503, chan8_raw : 1503, rssi : 254}
ATTITUDE {time_boot_ms : 422590, roll : -0.0175787843764, pitch : 0.00537918880582, yaw : -2.33972167969, rollspeed : 0.012266099453, pitchspeed : -0.0316515825689, yawspeed : -0.0602411068976}
GPS_RAW_INT {time_usec : 422531000, fix_type : 3, lat : 139106114, lon : 1004957646, alt : 9300, eph : 259, epv : 65535, vel : 4, cog : 32067, satellites_visible : 6}
VFR_HUD {airspeed : 0.0499999970198, groundspeed : 0.0499999970198, heading : 225, throttle : 16, alt : 0.0599999986589, climb : 0.019999999553}
RAW_IMU {time_usec : 420201508, xacc : 2, yacc : -105, zacc : -1003, xgyro : 5, ygyro : 1, zgyro : -5, xmag : -300, ymag : 310, zmag : 69}
GLOBAL_POSITION_INT {time_boot_ms : 422731, lat : 139106110, lon : 1004957657, alt : 9230, relative_alt : 60, vx : -6, vy : -7, vz : 6, hdg : 22593}
SERVO_OUTPUT_RAW {time_usec : 420201692, port : 0, servo1_raw : 1252, servo2_raw : 1271, servo3_raw : 1142, servo4_raw : 1209, servo5_raw : 0, servo6_raw : 0, servo7_raw : 0, servo8_raw : 0}
RC_CHANNELS_RAW {time_boot_ms : 422751, port : 0, chan1_raw : 1472, chan2_raw : 1506, chan3_raw : 1086, chan4_raw : 1499, chan5_raw : 1017, chan6_raw : 1503, chan7_raw : 1503, chan8_raw : 1503, rssi : 250}
ATTITUDE {time_boot_ms : 422811, roll : -0.0148638747633, pitch : 0.00345572130755, yaw : -2.33988618851, rollspeed : -0.0212713815272, pitchspeed : 0.0364718511701, yawspeed : 0.0043660979718}
GPS_RAW_INT {time_usec : 422731000, fix_type : 3, lat : 139106113, lon : 1004957648, alt : 9230, eph : 259, epv : 65535, vel : 9, cog : 32067, satellites_visible : 6}
VFR_HUD {airspeed : 0.719999969006, groundspeed : 0.719999969006, heading : 225, throttle : 16, alt : 0.0499999970198, climb : 0.00999999977648}
RAW_IMU {time_usec : 420421381, xacc : -73, yacc : 50, zacc : -1005, xgyro : 29, ygyro : -38, zgyro : -7, xmag : -297, ymag : 310, zmag : 60}
GLOBAL_POSITION_INT {time_boot_ms : 422930, lat : 139106110, lon : 1004957662, alt : 9330, relative_alt : 50, vx : 45, vy : -55, vz : -45, hdg : 22588}
SERVO_OUTPUT_RAW {time_usec : 420421526, port : 0, servo1_raw : 1278, servo2_raw : 1263, servo3_raw : 1142, servo4_raw : 1223, servo5_raw : 0, servo6_raw : 0, servo7_raw : 0, servo8_raw : 0}
RC_CHANNELS_RAW {time_boot_ms : 422971, port : 0, chan1_raw : 1471, chan2_raw : 1507, chan3_raw : 1085, chan4_raw : 1500, chan5_raw : 1017, chan6_raw : 1503, chan7_raw : 1503, chan8_raw : 1502, rssi : 220}
ATTITUDE {time_boot_ms : 423031, roll : -0.0098463492468, pitch : 0.00339857907966, yaw : -2.340528965, rollspeed : -0.0321151129901, pitchspeed : 0.0249975994229, yawspeed : 0.00680386647582}
GPS_RAW_INT {time_usec : 422930000, fix_type : 3, lat : 139106114, lon : 1004957646, alt : 9330, eph : 259, epv : 65535, vel : 72, cog : 32067, satellites_visible : 6}
VFR_HUD {airspeed : 0.310000002384, groundspeed : 0.310000002384, heading : 225, throttle : 16, alt : 0.070000000298, climb : 0.019999999553}
RAW_IMU {time_usec : 420641496, xacc : -61, yacc : 15, zacc : -971, xgyro : 8, ygyro : -34, zgyro : -13, xmag : -296, ymag : 307, zmag : 59}
GLOBAL_POSITION_INT {time_boot_ms : 423131, lat : 139106110, lon : 1004957665, alt : 9370, relative_alt : 70, vx : 29, vy : -7, vz : -29, hdg : 22587}
SERVO_OUTPUT_RAW {time_usec : 420641641, port : 0, servo1_raw : 1266, servo2_raw : 1268, servo3_raw : 1142, servo4_raw : 1215, servo5_raw : 0, servo6_raw : 0, servo7_raw : 0, servo8_raw : 0}
RC_CHANNELS_RAW {time_boot_ms : 423191, port : 0, chan1_raw : 1471, chan2_raw : 1507, chan3_raw : 1086, chan4_raw : 1499, chan5_raw : 1017, chan6_raw : 1503, chan7_raw : 1503, chan8_raw : 1503, rssi : 249}
ATTITUDE {time_boot_ms : 423250, roll : -0.00820408575237, pitch : 0.00536595331505, yaw : -2.34119653702, rollspeed : -0.0510827824473, pitchspeed : 0.0297618694603, yawspeed : -0.00473184138536}
GPS_RAW_INT {time_usec : 423131000, fix_type : 3, lat : 139106118, lon : 1004957648, alt : 9370, eph : 259, epv : 65535, vel : 31, cog : 32067, satellites_visible : 6}
VFR_HUD {airspeed : 0.629999995232, groundspeed : 0.629999995232, heading : 225, throttle : 16, alt : 0.0799999982119, climb : 0.00999999977648}
RAW_IMU {time_usec : 420861240, xacc : -178, yacc : 24, zacc : -820, xgyro : 9, ygyro : 22, zgyro : 13, xmag : -299, ymag : 309, zmag : 59}
GLOBAL_POSITION_INT {time_boot_ms : 423331, lat : 139106111, lon : 1004957667, alt : 9360, relative_alt : 80, vx : 44, vy : -45, vz : -44, hdg : 22588}
SERVO_OUTPUT_RAW {time_usec : 420881354, port : 0, servo1_raw : 1257, servo2_raw : 1257, servo3_raw : 1142, servo4_raw : 1204, servo5_raw : 0, servo6_raw : 0, servo7_raw : 0, servo8_raw : 0}
RC_CHANNELS_RAW {time_boot_ms : 423431, port : 0, chan1_raw : 1471, chan2_raw : 1507, chan3_raw : 1086, chan4_raw : 1499, chan5_raw : 1017, chan6_raw : 1503, chan7_raw : 1503, chan8_raw : 1503, rssi : 233}
ATTITUDE {time_boot_ms : 423490, roll : -0.00706648733467, pitch : 0.00465768948197, yaw : -2.34114313126, rollspeed : -0.0102611929178, pitchspeed : -0.0049599930644, yawspeed : 0.00782664678991}
GPS_RAW_INT {time_usec : 423331000, fix_type : 3, lat : 139106122, lon : 1004957649, alt : 9360, eph : 259, epv : 65535, vel : 63, cog : 32067, satellites_visible : 6}
VFR_HUD {airspeed : 0.729999959469, groundspeed : 0.729999959469, heading : 225, throttle : 16, alt : 0.0799999982119, climb : 0.019999999553}
RAW_IMU {time_usec : 421088982, xacc : 72, yacc : 97, zacc : -1178, xgyro : 11, ygyro : -13, zgyro : -1, xmag : -300, ymag : 312, zmag : 70}
GLOBAL_POSITION_INT {time_boot_ms : 423531, lat : 139106114, lon : 1004957670, alt : 9380, relative_alt : 80, vx : 59, vy : -41, vz : -59, hdg : 22588}
SERVO_OUTPUT_RAW {time_usec : 421109283, port : 0, servo1_raw : 1255, servo2_raw : 1268, servo3_raw : 1142, servo4_raw : 1217, servo5_raw : 0, servo6_raw : 0, servo7_raw : 0, servo8_raw : 0}
RC_CHANNELS_RAW {time_boot_ms : 423659, port : 0, chan1_raw : 1471, chan2_raw : 1506, chan3_raw : 1110, chan4_raw : 1499, chan5_raw : 1017, chan6_raw : 1503, chan7_raw : 1503, chan8_raw : 1503, rssi : 246}
ATTITUDE {time_boot_ms : 423719, roll : -0.00554436165839, pitch : 0.00545380543917, yaw : -2.34112882614, rollspeed : 0.025567740202, pitchspeed : 0.0184890478849, yawspeed : -0.0364799015224}
GPS_RAW_INT {time_usec : 423732000, fix_type : 3, lat : 139106130, lon : 1004957650, alt : 9410, eph : 259, epv : 65535, vel : 35, cog : 32067, satellites_visible : 6}
VFR_HUD {airspeed : 0.34999999404, groundspeed : 0.34999999404, heading : 225, throttle : 21, alt : 0.0599999986589, climb : 0.019999999553}
RAW_IMU {time_usec : 421309063, xacc : -20, yacc : -90, zacc : -938, xgyro : 25, ygyro : -8, zgyro : -31, xmag : -303, ymag : 309, zmag : 73}
GLOBAL_POSITION_INT {time_boot_ms : 423732, lat : 139106117, lon : 1004957671, alt : 9410, relative_alt : 60, vx : 22, vy : -26, vz : -22, hdg : 22585}
SERVO_OUTPUT_RAW {time_usec : 421328667, port : 0, servo1_raw : 1284, servo2_raw : 1275, servo3_raw : 1142, servo4_raw : 1236, servo5_raw : 0, servo6_raw : 0, servo7_raw : 0, servo8_raw : 0}
RC_CHANNELS_RAW {time_boot_ms : 423878, port : 0, chan1_raw : 1472, chan2_raw : 1507, chan3_raw : 1151, chan4_raw : 1502, chan5_raw : 1017, chan6_raw : 1503, chan7_raw : 1503, chan8_raw : 1503, rssi : 230}
ATTITUDE {time_boot_ms : 423938, roll : -0.00988434627652, pitch : 0.0040773791261, yaw : -2.34151124954, rollspeed : -0.0368232131004, pitchspeed : 0.0457907542586, yawspeed : -0.00282730162144}
GPS_RAW_INT {time_usec : 423930000, fix_type : 3, lat : 139106131, lon : 1004957651, alt : 9460, eph : 259, epv : 65535, vel : 82, cog : 32067, satellites_visible : 6}
VFR_HUD {airspeed : 0.819999992847, groundspeed : 0.819999992847, heading : 225, throttle : 21, alt : 0.0499999970198, climb : 0.0}
RAW_IMU {time_usec : 421531344, xacc : 73, yacc : 30, zacc : -1086, xgyro : 8, ygyro : 24, zgyro : 1, xmag : -297, ymag : 313, zmag : 61}
GLOBAL_POSITION_INT {time_boot_ms : 423930, lat : 139106120, lon : 1004957672, alt : 9460, relative_alt : 50, vx : 52, vy : -62, vz : -52, hdg : 22585}
SERVO_OUTPUT_RAW {time_usec : 421551474, port : 0, servo1_raw : 1250, servo2_raw : 1288, servo3_raw : 1146, servo4_raw : 1219, servo5_raw : 0, servo6_raw : 0, servo7_raw : 0, servo8_raw : 0}
RC_CHANNELS_RAW {time_boot_ms : 424101, port : 0, chan1_raw : 1472, chan2_raw : 1507, chan3_raw : 1150, chan4_raw : 1500, chan5_raw : 1017, chan6_raw : 1503, chan7_raw : 1503, chan8_raw : 1503, rssi : 254}
ATTITUDE {time_boot_ms : 424161, roll : -0.00485889054835, pitch : 0.00279700709507, yaw : -2.34102606773, rollspeed : 0.0082071274519, pitchspeed : -0.0689927041531, yawspeed : 0.0133799053729}
GPS_RAW_INT {time_usec : 424131000, fix_type : 3, lat : 139106134, lon : 1004957648, alt : 9360, eph : 259, epv : 65535, vel : 66, cog : 32067, satellites_visible : 6}
VFR_HUD {airspeed : 0.669999957085, groundspeed : 0.669999957085, heading : 225, throttle : 21, alt : 0.0599999986589, climb : 0.019999999553}
RAW_IMU {time_usec : 421751053, xacc : -69, yacc : -11, zacc : -930, xgyro : 27, ygyro : -46, zgyro : 14, xmag : -297, ymag : 309, zmag : 63}
GLOBAL_POSITION_INT {time_boot_ms : 424331, lat : 139106126, lon : 1004957672, alt : 9250, relative_alt : 60, vx : -3, vy : -79, vz : 3, hdg : 22585}
SERVO_OUTPUT_RAW {time_usec : 421791451, port : 0, servo1_raw : 1280, servo2_raw : 1261, servo3_raw : 1148, servo4_raw : 1217, servo5_raw : 0, servo6_raw : 0, servo7_raw : 0, servo8_raw : 0}
RC_CHANNELS_RAW {time_boot_ms : 424341, port : 0, chan1_raw : 1472, chan2_raw : 1507, chan3_raw : 1152, chan4_raw : 1499, chan5_raw : 1017, chan6_raw : 1503, chan7_raw : 1503, chan8_raw : 1503, rssi : 242}
ATTITUDE {time_boot_ms : 424401, roll : -0.0061983843334, pitch : 4.29372303188e-05, yaw : -2.34099292755, rollspeed : -0.0450733117759, pitchspeed : 0.0268962979317, yawspeed : 0.0100287217647}
GPS_RAW_INT {time_usec : 424331000, fix_type : 3, lat : 139106132, lon : 1004957643, alt : 9250, eph : 259, epv : 65535, vel : 79, cog : 32067, satellites_visible : 6}
RAW_IMU {time_usec : 421971595, xacc : -41, yacc : 100, zacc : -967, xgyro : -17, ygyro : 48, zgyro : -8, xmag : -300, ymag : 310, zmag : 59}
VFR_HUD {airspeed : 0.799999952316, groundspeed : 0.799999952316, heading : 225, throttle : 21, alt : 0.0899999961257, climb : 0.0299999993294}
GLOBAL_POSITION_INT {time_boot_ms : 424530, lat : 139106129, lon : 1004957669, alt : 9050, relative_alt : 90, vx : 2, vy : -45, vz : -2, hdg : 22586}
SERVO_OUTPUT_RAW {time_usec : 422016053, port : 0, servo1_raw : 1247, servo2_raw : 1291, servo3_raw : 1153, servo4_raw : 1216, servo5_raw : 0, servo6_raw : 0, servo7_raw : 0, servo8_raw : 0}
RC_CHANNELS_RAW {time_boot_ms : 424565, port : 0, chan1_raw : 1470, chan2_raw : 1507, chan3_raw : 1153, chan4_raw : 1500, chan5_raw : 1017, chan6_raw : 1503, chan7_raw : 1504, chan8_raw : 1502, rssi : 243}
ATTITUDE {time_boot_ms : 424626, roll : -0.00728892162442, pitch : -0.00242379540578, yaw : -2.34153008461, rollspeed : 0.0431936830282, pitchspeed : -0.0330577157438, yawspeed : -0.0128625631332}
GPS_RAW_INT {time_usec : 424530000, fix_type : 3, lat : 139106129, lon : 1004957639, alt : 9050, eph : 259, epv : 65535, vel : 45, cog : 32067, satellites_visible : 6}
RAW_IMU {time_usec : 422196054, xacc : -38, yacc : -113, zacc : -939, xgyro : 25, ygyro : 0, zgyro : -16, xmag : -301, ymag : 305, zmag : 68}
