RAW_IMU {time_usec : 5628386, xacc : -25, yacc : 3, zacc : -1001, xgyro : 0, ygyro : 0, zgyro : 0, xmag : -279, ymag : 369, zmag : 83}
GPS_RAW_INT {time_usec : 8013000, fix_type : 3, lat : 139106025, lon : 1004958017, alt : -3070, eph : 408, epv : 65535, vel : 4, cog : 0, satellites_visible : 4}
GLOBAL_POSITION_INT {time_boot_ms : 8013, lat : 0, lon : 0, alt : -3070, relative_alt : 10, vx : 1, vy : 4, vz : -1, hdg : 23289}
SERVO_OUTPUT_RAW {time_usec : 5628838, port : 0, servo1_raw : 1016, servo2_raw : 1016, servo3_raw : 1016, servo4_raw : 1016, servo5_raw : 0, servo6_raw : 0, servo7_raw : 0, servo8_raw : 0}
RC_CHANNELS_RAW {time_boot_ms : 8178, port : 0, chan1_raw : 1473, chan2_raw : 1506, chan3_raw : 1021, chan4_raw : 1499, chan5_raw : 1503, chan6_raw : 1503, chan7_raw : 1503, chan8_raw : 1503, rssi : 249}
ATTITUDE {time_boot_ms : 8178, roll : 0.00425480073318, pitch : -0.0111583219841, yaw : -2.21864843369, rollspeed : -1.77137553692e-05, pitchspeed : 0.000535756349564, yawspeed : -0.000370923429728}
VFR_HUD {airspeed : 0.0399999991059, groundspeed : 0.0399999991059, heading : 232, throttle : 0, alt : 0.00999999977648, climb : 0.070000000298}
RAW_IMU {time_usec : 5848072, xacc : -23, yacc : 4, zacc : -1005, xgyro : 0, ygyro : 0, zgyro : 0, xmag : -278, ymag : 369, zmag : 85}
GPS_RAW_INT {time_usec : 8272000, fix_type : 3, lat : 139106019, lon : 1004958025, alt : -3120, eph : 408, epv : 65535, vel : 8, cog : 0, satellites_visible : 4}
GLOBAL_POSITION_INT {time_boot_ms : 8272, lat : 0, lon : 0, alt : -3120, relative_alt : 20, vx : -2, vy : 8, vz : 2, hdg : 23289}
SERVO_OUTPUT_RAW {time_usec : 5849276, port : 0, servo1_raw : 1016, servo2_raw : 1016, servo3_raw : 1016, servo4_raw : 1016, servo5_raw : 0, servo6_raw : 0, servo7_raw : 0, servo8_raw : 0}
RC_CHANNELS_RAW {time_boot_ms : 8399, port : 0, chan1_raw : 1473, chan2_raw : 1506, chan3_raw : 1021, chan4_raw : 1499, chan5_raw : 1503, chan6_raw : 1503, chan7_raw : 1503, chan8_raw : 1503, rssi : 251}
ATTITUDE {time_boot_ms : 8399, roll : 0.00411352515221, pitch : -0.0119406720623, yaw : -2.21864843369, rollspeed : -0.000286485999823, pitchspeed : 0.000161807984114, yawspeed : 0.000239323824644}
VFR_HUD {airspeed : 0.0799999982119, groundspeed : 0.0799999982119, heading : 232, throttle : 0, alt : 0.019999999553, climb : 0.070000000298}
RAW_IMU {time_usec : 6068057, xacc : -22, yacc : 4, zacc : -1001, xgyro : 0, ygyro : 0, zgyro : 0, xmag : -281, ymag : 368, zmag : 87}
GPS_RAW_INT {time_usec : 8512000, fix_type : 3, lat : 139106009, lon : 1004958029, alt : -2940, eph : 408, epv : 65535, vel : 4, cog : 0, satellites_visible : 4}
GLOBAL_POSITION_INT {time_boot_ms : 8512, lat : 0, lon : 0, alt : -2940, relative_alt : 20, vx : -2, vy : 3, vz : 2, hdg : 23289}
SERVO_OUTPUT_RAW {time_usec : 6068840, port : 0, servo1_raw : 1016, servo2_raw : 1016, servo3_raw : 1016, servo4_raw : 1016, servo5_raw : 0, servo6_raw : 0, servo7_raw : 0, servo8_raw : 0}
RC_CHANNELS_RAW {time_boot_ms : 8618, port : 0, chan1_raw : 1472, chan2_raw : 1507, chan3_raw : 1021, chan4_raw : 1498, chan5_raw : 1504, chan6_raw : 1502, chan7_raw : 1504, chan8_raw : 1502, rssi : 236}
ATTITUDE {time_boot_ms : 8618, roll : 0.00384258711711, pitch : -0.012489660643, yaw : -2.21864366531, rollspeed : -0.000691093504429, pitchspeed : -0.000189330428839, yawspeed : -0.000360060483217}
VFR_HUD {airspeed : 0.0399999991059, groundspeed : 0.0399999991059, heading : 232, throttle : 0, alt : 0.019999999553, climb : 0.070000000298}
RAW_IMU {time_usec : 6288041, xacc : -23, yacc : 3, zacc : -1005, xgyro : 0, ygyro : 0, zgyro : 0, xmag : -278, ymag : 368, zmag : 84}
GPS_RAW_INT {time_usec : 8773000, fix_type : 3, lat : 139106009, lon : 1004958034, alt : -3240, eph : 408, epv : 65535, vel : 7, cog : 0, satellites_visible : 4}
GLOBAL_POSITION_INT {time_boot_ms : 8773, lat : 139106009, lon : 1004958034, alt : -3240, relative_alt : 20, vx : 3, vy : 7, vz : -3, hdg : 23287}
SERVO_OUTPUT_RAW {time_usec : 6288839, port : 0, servo1_raw : 1016, servo2_raw : 1016, servo3_raw : 1016, servo4_raw : 1016, servo5_raw : 0, servo6_raw : 0, servo7_raw : 0, servo8_raw : 0}
RC_CHANNELS_RAW {time_boot_ms : 8838, port : 0, chan1_raw : 1472, chan2_raw : 1506, chan3_raw : 1021, chan4_raw : 1499, chan5_raw : 1503, chan6_raw : 1503, chan7_raw : 1503, chan8_raw : 1503, rssi : 220}
ATTITUDE {time_boot_ms : 8838, roll : 0.00355503614992, pitch : -0.0131659368053, yaw : -2.21897649765, rollspeed : 7.72401690483e-05, pitchspeed : 0.000156532973051, yawspeed : -0.000458929687738}
VFR_HUD {airspeed : 0.070000000298, groundspeed : 0.070000000298, heading : 232, throttle : 0, alt : 0.019999999553, climb : 0.0799999982119}
RAW_IMU {time_usec : 6508327, xacc : -23, yacc : 4, zacc : -1001, xgyro : 0, ygyro : 0, zgyro : 0, xmag : -277, ymag : 368, zmag : 79}
GPS_RAW_INT {time_usec : 9013000, fix_type : 3, lat : 139106012, lon : 1004958026, alt : -3660, eph : 408, epv : 65535, vel : 2, cog : 0, satellites_visible : 4}
GLOBAL_POSITION_INT {time_boot_ms : 9013, lat : 139106009, lon : 1004958034, alt : -3660, relative_alt : 30, vx : 0, vy : 2, vz : 0, hdg : 23284}
SERVO_OUTPUT_RAW {time_usec : 6508882, port : 0, servo1_raw : 1016, servo2_raw : 1016, servo3_raw : 1016, servo4_raw : 1016, servo5_raw : 0, servo6_raw : 0, servo7_raw : 0, servo8_raw : 0}
RC_CHANNELS_RAW {time_boot_ms : 9058, port : 0, chan1_raw : 1472, chan2_raw : 1507, chan3_raw : 1021, chan4_raw : 1499, chan5_raw : 1503, chan6_raw : 1503, chan7_raw : 1503, chan8_raw : 1502, rssi : 247}
ATTITUDE {time_boot_ms : 9059, roll : 0.00330868503079, pitch : -0.0136029534042, yaw : -2.21938753128, rollspeed : 0.000148892402649, pitchspeed : 0.000306345522404, yawspeed : -0.000795025378466}
VFR_HUD {airspeed : 0.019999999553, groundspeed : 0.019999999553, heading : 232, throttle : 0, alt : 0.0299999993294, climb : 0.0799999982119}
RAW_IMU {time_usec : 6728502, xacc : -24, yacc : 3, zacc : -1002, xgyro : 0, ygyro : 0, zgyro : -1, xmag : -278, ymag : 369, zmag : 84}
GPS_RAW_INT {time_usec : 9253000, fix_type : 3, lat : 139106021, lon : 1004958025, alt : -4310, eph : 408, epv : 65535, vel : 2, cog : 0, satellites_visible : 4}
GLOBAL_POSITION_INT {time_boot_ms : 9253, lat : 139106010, lon : 1004958032, alt : -4310, relative_alt : 20, vx : 2, vy : 1, vz : -2, hdg : 23283}
SERVO_OUTPUT_RAW {time_usec : 6729248, port : 0, servo1_raw : 1016, servo2_raw : 1016, servo3_raw : 1016, servo4_raw : 1016, servo5_raw : 0, servo6_raw : 0, servo7_raw : 0, servo8_raw : 0}
RC_CHANNELS_RAW {time_boot_ms : 9279, port : 0, chan1_raw : 1473, chan2_raw : 1506, chan3_raw : 1021, chan4_raw : 1499, chan5_raw : 1503, chan6_raw : 1503, chan7_raw : 1503, chan8_raw : 1503, rssi : 242}
ATTITUDE {time_boot_ms : 9279, roll : 0.00326938251965, pitch : -0.0142901008949, yaw : -2.21970677376, rollspeed : -0.000717919319868, pitchspeed : -0.000254303216934, yawspeed : -0.00138702243567}
VFR_HUD {airspeed : 0.019999999553, groundspeed : 0.019999999553, heading : 232, throttle : 0, alt : 0.019999999553, climb : 0.0799999982119}
RAW_IMU {time_usec : 6948068, xacc : -24, yacc : 4, zacc : -1003, xgyro : 0, ygyro : 0, zgyro : 0, xmag : -277, ymag : 368, zmag : 81}
GLOBAL_POSITION_INT {time_boot_ms : 9253, lat : 139106013, lon : 1004958030, alt : -4650, relative_alt : 30, vx : 2, vy : 1, vz : -2, hdg : 23282}
SERVO_OUTPUT_RAW {time_usec : 6948935, port : 0, servo1_raw : 1016, servo2_raw : 1016, servo3_raw : 1016, servo4_raw : 1016, servo5_raw : 0, servo6_raw : 0, servo7_raw : 0, servo8_raw : 0}
RC_CHANNELS_RAW {time_boot_ms : 9498, port : 0, chan1_raw : 1472, chan2_raw : 1507, chan3_raw : 1021, chan4_raw : 1499, chan5_raw : 1503, chan6_raw : 1503, chan7_raw : 1503, chan8_raw : 1502, rssi : 250}
ATTITUDE {time_boot_ms : 9499, roll : 0.00314433639869, pitch : -0.0144393472001, yaw : -2.21975827217, rollspeed : -0.000296849757433, pitchspeed : 0.000397488474846, yawspeed : -0.000898011028767}
VFR_HUD {airspeed : 0.019999999553, groundspeed : 0.019999999553, heading : 232, throttle : 0, alt : 0.0299999993294, climb : 0.0899999961257}
RAW_IMU {time_usec : 7168245, xacc : -23, yacc : 3, zacc : -1002, xgyro : -1, ygyro : 0, zgyro : 0, xmag : -278, ymag : 368, zmag : 82}
GPS_RAW_INT {time_usec : 9513000, fix_type : 3, lat : 139106029, lon : 1004958002, alt : -4650, eph : 269, epv : 65535, vel : 4, cog : 0, satellites_visible : 6}
GLOBAL_POSITION_INT {time_boot_ms : 9513, lat : 139106017, lon : 1004958024, alt : -4650, relative_alt : 30, vx : 4, vy : -1, vz : -4, hdg : 23281}
SERVO_OUTPUT_RAW {time_usec : 7168886, port : 0, servo1_raw : 1016, servo2_raw : 1016, servo3_raw : 1016, servo4_raw : 1016, servo5_raw : 0, servo6_raw : 0, servo7_raw : 0, servo8_raw : 0}
RC_CHANNELS_RAW {time_boot_ms : 9718, port : 0, chan1_raw : 1472, chan2_raw : 1507, chan3_raw : 1020, chan4_raw : 1499, chan5_raw : 1503, chan6_raw : 1503, chan7_raw : 1503, chan8_raw : 1503, rssi : 248}
ATTITUDE {time_boot_ms : 9719, roll : 0.00320105627179, pitch : -0.0147171858698, yaw : -2.22002506256, rollspeed : -0.00109170377254, pitchspeed : 0.000675719231367, yawspeed : -0.000540599226952}
VFR_HUD {airspeed : 0.0499999970198, groundspeed : 0.0499999970198, heading : 232, throttle : 0, alt : 0.0299999993294, climb : 0.0899999961257}
RAW_IMU {time_usec : 7388339, xacc : -23, yacc : 3, zacc : -1003, xgyro : 0, ygyro : 0, zgyro : 0, xmag : -279, ymag : 368, zmag : 84}
GPS_RAW_INT {time_usec : 9773000, fix_type : 3, lat : 139106034, lon : 1004957981, alt : -4840, eph : 269, epv : 65535, vel : 4, cog : 0, satellites_visible : 6}
GLOBAL_POSITION_INT {time_boot_ms : 9773, lat : 139106022, lon : 1004958015, alt : -4840, relative_alt : 10, vx : 4, vy : 1, vz : -4, hdg : 23281}
SERVO_OUTPUT_RAW {time_usec : 7388868, port : 0, servo1_raw : 1016, servo2_raw : 1016, servo3_raw : 1016, servo4_raw : 1016, servo5_raw : 0, servo6_raw : 0, servo7_raw : 0, servo8_raw : 0}
RC_CHANNELS_RAW {time_boot_ms : 9938, port : 0, chan1_raw : 1473, chan2_raw : 1506, chan3_raw : 1021, chan4_raw : 1499, chan5_raw : 1503, chan6_raw : 1503, chan7_raw : 1503, chan8_raw : 1502, rssi : 250}
ATTITUDE {time_boot_ms : 9938, roll : 0.00304942880757, pitch : -0.0147220939398, yaw : -2.2200422287, rollspeed : -0.000616904348135, pitchspeed : 0.000773265957832, yawspeed : -0.00031815841794}
VFR_HUD {airspeed : 0.0399999991059, groundspeed : 0.0399999991059, heading : 232, throttle : 0, alt : 0.00999999977648, climb : 0.0799999982119}
RAW_IMU {time_usec : 7608059, xacc : -22, yacc : 5, zacc : -1002, xgyro : -1, ygyro : 0, zgyro : 0, xmag : -279, ymag : 369, zmag : 86}
GPS_RAW_INT {time_usec : 10013000, fix_type : 3, lat : 139106031, lon : 1004957972, alt : -4670, eph : 269, epv : 65535, vel : 1, cog : 0, satellites_visible : 6}
GLOBAL_POSITION_INT {time_boot_ms : 10013, lat : 139106026, lon : 1004958004, alt : -4670, relative_alt : 10, vx : 0, vy : 1, vz : 0, hdg : 23281}
SERVO_OUTPUT_RAW {time_usec : 7608895, port : 0, servo1_raw : 1016, servo2_raw : 1016, servo3_raw : 1016, servo4_raw : 1016, servo5_raw : 0, servo6_raw : 0, servo7_raw : 0, servo8_raw : 0}
RC_CHANNELS_RAW {time_boot_ms : 10158, port : 0, chan1_raw : 1472, chan2_raw : 1507, chan3_raw : 1021, chan4_raw : 1498, chan5_raw : 1503, chan6_raw : 1503, chan7_raw : 1504, chan8_raw : 1502, rssi : 250}
ATTITUDE {time_boot_ms : 10158, roll : 0.00285438471474, pitch : -0.0144760375842, yaw : -2.22001934052, rollspeed : -0.00101979449391, pitchspeed : 0.000108499079943, yawspeed : -0.000621687620878}
VFR_HUD {airspeed : 0.00999999977648, groundspeed : 0.00999999977648, heading : 232, throttle : 0, alt : 0.00999999977648, climb : 0.0799999982119}
RAW_IMU {time_usec : 7828800, xacc : -24, yacc : 3, zacc : -1001, xgyro : 0, ygyro : 0, zgyro : 0, xmag : -277, ymag : 367, zmag : 85}
GPS_RAW_INT {time_usec : 10274000, fix_type : 3, lat : 139106045, lon : 1004957955, alt : -5320, eph : 269, epv : 65535, vel : 4, cog : 0, satellites_visible : 6}
GLOBAL_POSITION_INT {time_boot_ms : 10274, lat : 139106032, lon : 1004957987, alt : -5320, relative_alt : 0, vx : -3, vy : -2, vz : 3, hdg : 23281}
SERVO_OUTPUT_RAW {time_usec : 7829522, port : 0, servo1_raw : 1016, servo2_raw : 1016, servo3_raw : 1016, servo4_raw : 1016, servo5_raw : 0, servo6_raw : 0, servo7_raw : 0, servo8_raw : 0}
RC_CHANNELS_RAW {time_boot_ms : 10379, port : 0, chan1_raw : 1472, chan2_raw : 1507, chan3_raw : 1020, chan4_raw : 1499, chan5_raw : 1503, chan6_raw : 1503, chan7_raw : 1503, chan8_raw : 1503, rssi : 230}
ATTITUDE {time_boot_ms : 10379, roll : 0.00286079966463, pitch : -0.0146181043237, yaw : -2.21996831894, rollspeed : -0.000179354101419, pitchspeed : 0.000690601766109, yawspeed : -0.000919960439205}
VFR_HUD {airspeed : 0.0399999991059, groundspeed : 0.0399999991059, heading : 232, throttle : 0, alt : 0.0, climb : 0.0799999982119}
RAW_IMU {time_usec : 8048058, xacc : -25, yacc : 3, zacc : -1003, xgyro : 0, ygyro : 0, zgyro : -1, xmag : -280, ymag : 368, zmag : 86}
GPS_RAW_INT {time_usec : 10512000, fix_type : 3, lat : 139106060, lon : 1004957931, alt : -6010, eph : 269, epv : 65535, vel : 9, cog : 0, satellites_visible : 6}
GLOBAL_POSITION_INT {time_boot_ms : 10512, lat : 139106039, lon : 1004957973, alt : -6010, relative_alt : 0, vx : -8, vy : -3, vz : 8, hdg : 23282}
SERVO_OUTPUT_RAW {time_usec : 8048775, port : 0, servo1_raw : 1016, servo2_raw : 1016, servo3_raw : 1016, servo4_raw : 1016, servo5_raw : 0, servo6_raw : 0, servo7_raw : 0, servo8_raw : 0}
RC_CHANNELS_RAW {time_boot_ms : 10598, port : 0, chan1_raw : 1472, chan2_raw : 1507, chan3_raw : 1021, chan4_raw : 1498, chan5_raw : 1504, chan6_raw : 1502, chan7_raw : 1504, chan8_raw : 1502, rssi : 253}
ATTITUDE {time_boot_ms : 10598, roll : 0.00269312621094, pitch : -0.0147572560236, yaw : -2.21987748146, rollspeed : -0.000628937035799, pitchspeed : -0.000327408313751, yawspeed : -0.00101049616933}
VFR_HUD {airspeed : 0.0899999961257, groundspeed : 0.0899999961257, heading : 232, throttle : 0, alt : 0.0, climb : 0.0799999982119}
RAW_IMU {time_usec : 8268266, xacc : -24, yacc : 2, zacc : -1004, xgyro : 0, ygyro : 1, zgyro : -1, xmag : -277, ymag : 368, zmag : 82}
GPS_RAW_INT {time_usec : 10773000, fix_type : 3, lat : 139106076, lon : 1004957912, alt : -6440, eph : 269, epv : 65535, vel : 8, cog : 0, satellites_visible : 6}
GLOBAL_POSITION_INT {time_boot_ms : 10773, lat : 139106048, lon : 1004957957, alt : -6440, relative_alt : -10, vx : -2, vy : 8, vz : 2, hdg : 23280}
SERVO_OUTPUT_RAW {time_usec : 8268911, port : 0, servo1_raw : 1016, servo2_raw : 1016, servo3_raw : 1016, servo4_raw : 1016, servo5_raw : 0, servo6_raw : 0, servo7_raw : 0, servo8_raw : 0}
RC_CHANNELS_RAW {time_boot_ms : 10818, port : 0, chan1_raw : 1473, chan2_raw : 1507, chan3_raw : 1020, chan4_raw : 1499, chan5_raw : 1503, chan6_raw : 1503, chan7_raw : 1503, chan8_raw : 1503, rssi : 246}
ATTITUDE {time_boot_ms : 10818, roll : 0.00248422729783, pitch : -0.0148135535419, yaw : -2.22009992599, rollspeed : -0.00019359588623, pitchspeed : 0.00103190913796, yawspeed : -0.0019450224936}
VFR_HUD {airspeed : 0.0799999982119, groundspeed : 0.0799999982119, heading : 232, throttle : 0, alt : -0.00999999977648, climb : 0.0799999982119}
RAW_IMU {time_usec : 8488043, xacc : -24, yacc : 3, zacc : -1003, xgyro : 0, ygyro : 0, zgyro : -1, xmag : -278, ymag : 367, zmag : 78}
GPS_RAW_INT {time_usec : 11013000, fix_type : 3, lat : 139106089, lon : 1004957894, alt : -6890, eph : 269, epv : 65535, vel : 7, cog : 0, satellites_visible : 6}
GLOBAL_POSITION_INT {time_boot_ms : 11013, lat : 139106058, lon : 1004957940, alt : -6890, relative_alt : -20, vx : -3, vy : 6, vz : 3, hdg : 23280}
SERVO_OUTPUT_RAW {time_usec : 8488855, port : 0, servo1_raw : 1016, servo2_raw : 1016, servo3_raw : 1016, servo4_raw : 1016, servo5_raw : 0, servo6_raw : 0, servo7_raw : 0, servo8_raw : 0}
RC_CHANNELS_RAW {time_boot_ms : 11038, port : 0, chan1_raw : 1472, chan2_raw : 1507, chan3_raw : 1021, chan4_raw : 1498, chan5_raw : 1504, chan6_raw : 1502, chan7_raw : 1504, chan8_raw : 1502, rssi : 223}
ATTITUDE {time_boot_ms : 11038, roll : 0.00230300356634, pitch : -0.015061173588, yaw : -2.22019314766, rollspeed : 0.00029306858778, pitchspeed : 0.000461589545012, yawspeed : -0.00192460045218}
VFR_HUD {airspeed : 0.070000000298, groundspeed : 0.070000000298, heading : 232, throttle : 0, alt : -0.019999999553, climb : 0.0799999982119}
RAW_IMU {time_usec : 8708815, xacc : -24, yacc : 5, zacc : -1005, xgyro : 0, ygyro : 0, zgyro : -1, xmag : -278, ymag : 369, zmag : 81}
GLOBAL_POSITION_INT {time_boot_ms : 11013, lat : 139106069, lon : 1004957922, alt : -6890, relative_alt : -20, vx : -3, vy : 6, vz : 3, hdg : 23279}
SERVO_OUTPUT_RAW {time_usec : 8709455, port : 0, servo1_raw : 1016, servo2_raw : 1016, servo3_raw : 1016, servo4_raw : 1016, servo5_raw : 0, servo6_raw : 0, servo7_raw : 0, servo8_raw : 0}
RC_CHANNELS_RAW {time_boot_ms : 11259, port : 0, chan1_raw : 1472, chan2_raw : 1507, chan3_raw : 1021, chan4_raw : 1499, chan5_raw : 1503, chan6_raw : 1503, chan7_raw : 1503, chan8_raw : 1502, rssi : 241}
ATTITUDE {time_boot_ms : 11259, roll : 0.00241320533678, pitch : -0.0153088644147, yaw : -2.22023653984, rollspeed : 3.09571623802e-06, pitchspeed : -0.000241044908762, yawspeed : -0.00139016658068}
VFR_HUD {airspeed : 0.070000000298, groundspeed : 0.070000000298, heading : 232, throttle : 0, alt : -0.019999999553, climb : 0.0799999982119}
RAW_IMU {time_usec : 8928042, xacc : -23, yacc : 4, zacc : -1005, xgyro : 0, ygyro : 0, zgyro : -2, xmag : -276, ymag : 368, zmag : 82}
GPS_RAW_INT {time_usec : 11273000, fix_type : 3, lat : 139106094, lon : 1004957883, alt : -7250, eph : 269, epv : 65535, vel : 16, cog : 0, satellites_visible : 6}
GLOBAL_POSITION_INT {time_boot_ms : 11273, lat : 139106085, lon : 1004957897, alt : -7250, relative_alt : -20, vx : -12, vy : 9, vz : 12, hdg : 23280}
SERVO_OUTPUT_RAW {time_usec : 8928866, port : 0, servo1_raw : 1016, servo2_raw : 1016, servo3_raw : 1016, servo4_raw : 1016, servo5_raw : 0, servo6_raw : 0, servo7_raw : 0, servo8_raw : 0}
RC_CHANNELS_RAW {time_boot_ms : 11478, port : 0, chan1_raw : 1472, chan2_raw : 1506, chan3_raw : 1021, chan4_raw : 1499, chan5_raw : 1503, chan6_raw : 1503, chan7_raw : 1503, chan8_raw : 1503, rssi : 232}
ATTITUDE {time_boot_ms : 11478, roll : 0.00211383518763, pitch : -0.0154050309211, yaw : -2.22017908096, rollspeed : -0.00078496709466, pitchspeed : 0.000439185649157, yawspeed : -0.00241124629974}
VFR_HUD {airspeed : 0.159999996424, groundspeed : 0.159999996424, heading : 232, throttle : 0, alt : -0.019999999553, climb : 0.0799999982119}
RAW_IMU {time_usec : 9148047, xacc : -25, yacc : 5, zacc : -1003, xgyro : 0, ygyro : 0, zgyro : -1, xmag : -278, ymag : 367, zmag : 81}
GPS_RAW_INT {time_usec : 11533000, fix_type : 3, lat : 139106098, lon : 1004957877, alt : -7410, eph : 269, epv : 65535, vel : 18, cog : 0, satellites_visible : 6}
GLOBAL_POSITION_INT {time_boot_ms : 11533, lat : 139106094, lon : 1004957882, alt : -7410, relative_alt : -30, vx : 0, vy : 18, vz : 0, hdg : 23280}
SERVO_OUTPUT_RAW {time_usec : 9148652, port : 0, servo1_raw : 1016, servo2_raw : 1016, servo3_raw : 1016, servo4_raw : 1016, servo5_raw : 0, servo6_raw : 0, servo7_raw : 0, servo8_raw : 0}
RC_CHANNELS_RAW {time_boot_ms : 11698, port : 0, chan1_raw : 1472, chan2_raw : 1507, chan3_raw : 1021, chan4_raw : 1499, chan5_raw : 1503, chan6_raw : 1503, chan7_raw : 1503, chan8_raw : 1502, rssi : 243}
ATTITUDE {time_boot_ms : 11698, roll : 0.00216527353041, pitch : -0.0153401354328, yaw : -2.22009420395, rollspeed : 0.000519067049026, pitchspeed : 0.000650390982628, yawspeed : -0.00181799009442}
VFR_HUD {airspeed : 0.179999992251, groundspeed : 0.179999992251, heading : 232, throttle : 0, alt : -0.0299999993294, climb : 0.0799999982119}
RAW_IMU {time_usec : 9368376, xacc : -22, yacc : 4, zacc : -1002, xgyro : 0, ygyro : 0, zgyro : 0, xmag : -279, ymag : 366, zmag : 86}
GPS_RAW_INT {time_usec : 11773000, fix_type : 3, lat : 139106106, lon : 1004957867, alt : -7780, eph : 269, epv : 65535, vel : 9, cog : 0, satellites_visible : 6}
GLOBAL_POSITION_INT {time_boot_ms : 11773, lat : 139106103, lon : 1004957869, alt : -7780, relative_alt : -20, vx : 3, vy : 8, vz : -3, hdg : 23279}
SERVO_OUTPUT_RAW {time_usec : 9368913, port : 0, servo1_raw : 1016, servo2_raw : 1016, servo3_raw : 1016, servo4_raw : 1016, servo5_raw : 0, servo6_raw : 0, servo7_raw : 0, servo8_raw : 0}
RC_CHANNELS_RAW {time_boot_ms : 11918, port : 0, chan1_raw : 1472, chan2_raw : 1507, chan3_raw : 1021, chan4_raw : 1499, chan5_raw : 1503, chan6_raw : 1503, chan7_raw : 1503, chan8_raw : 1502, rssi : 249}
ATTITUDE {time_boot_ms : 11919, roll : 0.00187770242337, pitch : -0.0152900442481, yaw : -2.22034883499, rollspeed : -0.000387646257877, pitchspeed : 0.000409942120314, yawspeed : -0.000854447484016}
VFR_HUD {airspeed : 0.0899999961257, groundspeed : 0.0899999961257, heading : 232, throttle : 0, alt : -0.019999999553, climb : 0.0799999982119}
RAW_IMU {time_usec : 9588237, xacc : -25, yacc : 2, zacc : -1002, xgyro : 0, ygyro : 0, zgyro : 0, xmag : -277, ymag : 368, zmag : 86}
GPS_RAW_INT {time_usec : 12013000, fix_type : 3, lat : 139106112, lon : 1004957856, alt : -8090, eph : 269, epv : 65535, vel : 4, cog : 0, satellites_visible : 6}
GLOBAL_POSITION_INT {time_boot_ms : 12013, lat : 139106111, lon : 1004957856, alt : -8090, relative_alt : -40, vx : 4, vy : 0, vz : -4, hdg : 23278}
SERVO_OUTPUT_RAW {time_usec : 9588998, port : 0, servo1_raw : 1016, servo2_raw : 1016, servo3_raw : 1016, servo4_raw : 1016, servo5_raw : 0, servo6_raw : 0, servo7_raw : 0, servo8_raw : 0}
RC_CHANNELS_RAW {time_boot_ms : 12138, port : 0, chan1_raw : 1473, chan2_raw : 1506, chan3_raw : 1021, chan4_raw : 1499, chan5_raw : 1503, chan6_raw : 1503, chan7_raw : 1503, chan8_raw : 1502, rssi : 254}
ATTITUDE {time_boot_ms : 12139, roll : 0.00184910616372, pitch : -0.0154016073793, yaw : -2.22041392326, rollspeed : -0.000744812190533, pitchspeed : -0.000353798270226, yawspeed : -0.00049701705575}
VFR_HUD {airspeed : 0.0399999991059, groundspeed : 0.0399999991059, heading : 232, throttle : 0, alt : -0.0399999991059, climb : 0.070000000298}
RAW_IMU {time_usec : 9808414, xacc : -24, yacc : 2, zacc : -1005, xgyro : -1, ygyro : 0, zgyro : -1, xmag : -278, ymag : 368, zmag : 83}
GPS_RAW_INT {time_usec : 12273000, fix_type : 3, lat : 139106114, lon : 1004957845, alt : -8210, eph : 269, epv : 65535, vel : 6, cog : 0, satellites_visible : 6}
GLOBAL_POSITION_INT {time_boot_ms : 12273, lat : 139106119, lon : 1004957843, alt : -8210, relative_alt : -50, vx : 2, vy : -4, vz : -2, hdg : 23280}
SERVO_OUTPUT_RAW {time_usec : 9808989, port : 0, servo1_raw : 1016, servo2_raw : 1016, servo3_raw : 1016, servo4_raw : 1016, servo5_raw : 0, servo6_raw : 0, servo7_raw : 0, servo8_raw : 0}
RC_CHANNELS_RAW {time_boot_ms : 12358, port : 0, chan1_raw : 1472, chan2_raw : 1507, chan3_raw : 1020, chan4_raw : 1499, chan5_raw : 1503, chan6_raw : 1503, chan7_raw : 1503, chan8_raw : 1503, rssi : 223}
ATTITUDE {time_boot_ms : 12359, roll : 0.00178820558358, pitch : -0.0154059436172, yaw : -2.22017407417, rollspeed : -0.00114003196359, pitchspeed : -0.000678163021803, yawspeed : -0.00161112099886}
VFR_HUD {airspeed : 0.0599999986589, groundspeed : 0.0599999986589, heading : 232, throttle : 0, alt : -0.0499999970198, climb : 0.070000000298}
RAW_IMU {time_usec : 10028487, xacc : -25, yacc : 3, zacc : -1004, xgyro : 0, ygyro : 0, zgyro : -1, xmag : -278, ymag : 367, zmag : 86}
GPS_RAW_INT {time_usec : 12513000, fix_type : 3, lat : 139106110, lon : 1004957840, alt : -8130, eph : 269, epv : 65535, vel : 6, cog : 0, satellites_visible : 6}
GLOBAL_POSITION_INT {time_boot_ms : 12513, lat : 139106128, lon : 1004957826, alt : -8130, relative_alt : -50, vx : -6, vy : -2, vz : 6, hdg : 23281}
SERVO_OUTPUT_RAW {time_usec : 10029009, port : 0, servo1_raw : 1016, servo2_raw : 1016, servo3_raw : 1016, servo4_raw : 1016, servo5_raw : 0, servo6_raw : 0, servo7_raw : 0, servo8_raw : 0}
RC_CHANNELS_RAW {time_boot_ms : 12578, port : 0, chan1_raw : 1472, chan2_raw : 1507, chan3_raw : 1021, chan4_raw : 1498, chan5_raw : 1504, chan6_raw : 1502, chan7_raw : 1504, chan8_raw : 1502, rssi : 232}
ATTITUDE {time_boot_ms : 12579, roll : 0.00174633495044, pitch : -0.0154004525393, yaw : -2.21994924545, rollspeed : -0.000835042446852, pitchspeed : 0.000253994017839, yawspeed : -0.00102088972926}
VFR_HUD {airspeed : 0.0599999986589, groundspeed : 0.0599999986589, heading : 232, throttle : 0, alt : -0.0499999970198, climb : 0.070000000298}
RAW_IMU {time_usec : 10248232, xacc : -22, yacc : 4, zacc : -1005, xgyro : -1, ygyro : 0, zgyro : 0, xmag : -278, ymag : 367, zmag : 83}
GPS_RAW_INT {time_usec : 12773000, fix_type : 3, lat : 139106106, lon : 1004957838, alt : -7960, eph : 269, epv : 65535, vel : 6, cog : 0, satellites_visible : 6}
GLOBAL_POSITION_INT {time_boot_ms : 12773, lat : 139106131, lon : 1004957816, alt : -7960, relative_alt : -40, vx : -6, vy : 1, vz : 6, hdg : 23279}
SERVO_OUTPUT_RAW {time_usec : 10248692, port : 0, servo1_raw : 1016, servo2_raw : 1016, servo3_raw : 1016, servo4_raw : 1016, servo5_raw : 0, servo6_raw : 0, servo7_raw : 0, servo8_raw : 0}
RC_CHANNELS_RAW {time_boot_ms : 12798, port : 0, chan1_raw : 1472, chan2_raw : 1507, chan3_raw : 1021, chan4_raw : 1499, chan5_raw : 1503, chan6_raw : 1503, chan7_raw : 1503, chan8_raw : 1502, rssi : 250}
ATTITUDE {time_boot_ms : 12798, roll : 0.00176092982292, pitch : -0.0154637917876, yaw : -2.22031211853, rollspeed : -0.00135336071253, pitchspeed : 0.000714261084795, yawspeed : -2.5812536478e-05}
VFR_HUD {airspeed : 0.0599999986589, groundspeed : 0.0599999986589, heading : 232, throttle : 0, alt : -0.0399999991059, climb : 0.070000000298}
RAW_IMU {time_usec : 10468333, xacc : -22, yacc : 3, zacc : -1007, xgyro : 0, ygyro : 1, zgyro : 0, xmag : -277, ymag : 368, zmag : 79}
GPS_RAW_INT {time_usec : 13013000, fix_type : 3, lat : 139106102, lon : 1004957834, alt : -7770, eph : 269, epv : 65535, vel : 6, cog : 0, satellites_visible : 6}
GLOBAL_POSITION_INT {time_boot_ms : 13013, lat : 139106132, lon : 1004957809, alt : -7770, relative_alt : -40, vx : -6, vy : -2, vz : 6, hdg : 23278}
SERVO_OUTPUT_RAW {time_usec : 10468818, port : 0, servo1_raw : 1016, servo2_raw : 1016, servo3_raw : 1016, servo4_raw : 1016, servo5_raw : 0, servo6_raw : 0, servo7_raw : 0, servo8_raw : 0}
RC_CHANNELS_RAW {time_boot_ms : 13018, port : 0, chan1_raw : 1472, chan2_raw : 1507, chan3_raw : 1021, chan4_raw : 1499, chan5_raw : 1503, chan6_raw : 1503, chan7_raw : 1503, chan8_raw : 1502, rssi : 250}
ATTITUDE {time_boot_ms : 13019, roll : 0.00158561172429, pitch : -0.0151671096683, yaw : -2.2204656601, rollspeed : -0.000721234828234, pitchspeed : 0.00115647912025, yawspeed : -0.000417720526457}
VFR_HUD {airspeed : 0.0599999986589, groundspeed : 0.0599999986589, heading : 232, throttle : 0, alt : -0.0399999991059, climb : 0.070000000298}
RAW_IMU {time_usec : 10688278, xacc : -24, yacc : 4, zacc : -1004, xgyro : 0, ygyro : 1, zgyro : 0, xmag : -277, ymag : 370, zmag : 81}
GLOBAL_POSITION_INT {time_boot_ms : 13013, lat : 139106132, lon : 1004957803, alt : -7770, relative_alt : -50, vx : -6, vy : -2, vz : 6, hdg : 23278}
SERVO_OUTPUT_RAW {time_usec : 10688885, port : 0, servo1_raw : 1016, servo2_raw : 1016, servo3_raw : 1016, servo4_raw : 1016, servo5_raw : 0, servo6_raw : 0, servo7_raw : 0, servo8_raw : 0}
RC_CHANNELS_RAW {time_boot_ms : 13238, port : 0, chan1_raw : 1472, chan2_raw : 1507, chan3_raw : 1021, chan4_raw : 1498, chan5_raw : 1504, chan6_raw : 1502, chan7_raw : 1504, chan8_raw : 1502, rssi : 236}
ATTITUDE {time_boot_ms : 13239, roll : 0.00164556561504, pitch : -0.0151584045961, yaw : -2.220454216, rollspeed : -0.000821013003588, pitchspeed : 0.00108624249697, yawspeed : 0.000294487923384}
VFR_HUD {airspeed : 0.0599999986589, groundspeed : 0.0599999986589, heading : 232, throttle : 0, alt : -0.0499999970198, climb : 0.070000000298}
RAW_IMU {time_usec : 10908253, xacc : -24, yacc : 2, zacc : -1004, xgyro : 0, ygyro : 0, zgyro : 0, xmag : -277, ymag : 368, zmag : 85}
GPS_RAW_INT {time_usec : 13272000, fix_type : 3, lat : 139106098, lon : 1004957830, alt : -7630, eph : 269, epv : 65535, vel : 4, cog : 0, satellites_visible : 6}
GLOBAL_POSITION_INT {time_boot_ms : 13272, lat : 139106131, lon : 1004957797, alt : -7630, relative_alt : -50, vx : -4, vy : 1, vz : 4, hdg : 23279}
SERVO_OUTPUT_RAW {time_usec : 10908963, port : 0, servo1_raw : 1016, servo2_raw : 1016, servo3_raw : 1016, servo4_raw : 1016, servo5_raw : 0, servo6_raw : 0, servo7_raw : 0, servo8_raw : 0}
RC_CHANNELS_RAW {time_boot_ms : 13459, port : 0, chan1_raw : 1472, chan2_raw : 1506, chan3_raw : 1021, chan4_raw : 1499, chan5_raw : 1503, chan6_raw : 1503, chan7_raw : 1503, chan8_raw : 1503, rssi : 249}
ATTITUDE {time_boot_ms : 13459, roll : 0.00163647613954, pitch : -0.0152900442481, yaw : -2.22023439407, rollspeed : -0.00056004524231, pitchspeed : 0.000214923173189, yawspeed : 0.000785630196333}
VFR_HUD {airspeed : 0.0499999970198, groundspeed : 0.0499999970198, heading : 232, throttle : 0, alt : -0.0499999970198, climb : 0.070000000298}
RAW_IMU {time_usec : 11128361, xacc : -24, yacc : 4, zacc : -1004, xgyro : -2, ygyro : 0, zgyro : 0, xmag : -277, ymag : 366, zmag : 84}
GPS_RAW_INT {time_usec : 13513000, fix_type : 3, lat : 139106096, lon : 1004957829, alt : -7510, eph : 269, epv : 65535, vel : 7, cog : 0, satellites_visible : 6}
GLOBAL_POSITION_INT {time_boot_ms : 13513, lat : 139106127, lon : 1004957791, alt : -7510, relative_alt : -70, vx : -4, vy : 4, vz : 4, hdg : 23279}
SERVO_OUTPUT_RAW {time_usec : 11128803, port : 0, servo1_raw : 1016, servo2_raw : 1016, servo3_raw : 1016, servo4_raw : 1016, servo5_raw : 0, servo6_raw : 0, servo7_raw : 0, servo8_raw : 0}
RC_CHANNELS_RAW {time_boot_ms : 13678, port : 0, chan1_raw : 1473, chan2_raw : 1507, chan3_raw : 1020, chan4_raw : 1499, chan5_raw : 1503, chan6_raw : 1503, chan7_raw : 1503, chan8_raw : 1503, rssi : 249}
ATTITUDE {time_boot_ms : 13678, roll : 0.00168509141076, pitch : -0.0153321009129, yaw : -2.22034788132, rollspeed : -0.0022355094552, pitchspeed : 0.000431537628174, yawspeed : 0.000241242349148}
VFR_HUD {airspeed : 0.070000000298, groundspeed : 0.070000000298, heading : 232, throttle : 0, alt : -0.070000000298, climb : 0.070000000298}
RAW_IMU {time_usec : 11348254, xacc : -24, yacc : 2, zacc : -1004, xgyro : 0, ygyro : 0, zgyro : 0, xmag : -280, ymag : 367, zmag : 88}
GPS_RAW_INT {time_usec : 13773000, fix_type : 3, lat : 139106095, lon : 1004957828, alt : -7440, eph : 269, epv : 65535, vel : 11, cog : 0, satellites_visible : 6}
GLOBAL_POSITION_INT {time_boot_ms : 13773, lat : 139106124, lon : 1004957789, alt : -7440, relative_alt : -90, vx : 2, vy : 11, vz : -2, hdg : 23278}
SERVO_OUTPUT_RAW {time_usec : 11348795, port : 0, servo1_raw : 1016, servo2_raw : 1016, servo3_raw : 1016, servo4_raw : 1016, servo5_raw : 0, servo6_raw : 0, servo7_raw : 0, servo8_raw : 0}
RC_CHANNELS_RAW {time_boot_ms : 13898, port : 0, chan1_raw : 1472, chan2_raw : 1507, chan3_raw : 1021, chan4_raw : 1499, chan5_raw : 1503, chan6_raw : 1503, chan7_raw : 1503, chan8_raw : 1502, rssi : 250}
ATTITUDE {time_boot_ms : 13899, roll : 0.00172563432716, pitch : -0.0153154591098, yaw : -2.22050666809, rollspeed : -9.48086380959e-05, pitchspeed : -5.09992241859e-06, yawspeed : 0.000627562403679}
VFR_HUD {airspeed : 0.109999999404, groundspeed : 0.109999999404, heading : 232, throttle : 0, alt : -0.0899999961257, climb : 0.0599999986589}
RAW_IMU {time_usec : 11568364, xacc : -24, yacc : 3, zacc : -1001, xgyro : 0, ygyro : 0, zgyro : 0, xmag : -276, ymag : 368, zmag : 79}
GPS_RAW_INT {time_usec : 14032000, fix_type : 3, lat : 139106098, lon : 1004957823, alt : -7520, eph : 269, epv : 65535, vel : 8, cog : 0, satellites_visible : 6}
GLOBAL_POSITION_INT {time_boot_ms : 14032, lat : 139106122, lon : 1004957787, alt : -7520, relative_alt : -90, vx : 4, vy : 7, vz : -4, hdg : 23278}
SERVO_OUTPUT_RAW {time_usec : 11568861, port : 0, servo1_raw : 1016, servo2_raw : 1016, servo3_raw : 1016, servo4_raw : 1016, servo5_raw : 0, servo6_raw : 0, servo7_raw : 0, servo8_raw : 0}
RC_CHANNELS_RAW {time_boot_ms : 14118, port : 0, chan1_raw : 1472, chan2_raw : 1507, chan3_raw : 1020, chan4_raw : 1499, chan5_raw : 1503, chan6_raw : 1503, chan7_raw : 1503, chan8_raw : 1503, rssi : 252}
ATTITUDE {time_boot_ms : 14118, roll : 0.00179091084283, pitch : -0.0153241399676, yaw : -2.22050642967, rollspeed : -0.000460021197796, pitchspeed : 0.000181868672371, yawspeed : 0.000177931040525}
VFR_HUD {airspeed : 0.0799999982119, groundspeed : 0.0799999982119, heading : 232, throttle : 0, alt : -0.0899999961257, climb : 0.0599999986589}
RAW_IMU {time_usec : 11788246, xacc : -24, yacc : 3, zacc : -1005, xgyro : 0, ygyro : 0, zgyro : 1, xmag : -278, ymag : 368, zmag : 84}
GPS_RAW_INT {time_usec : 14273000, fix_type : 3, lat : 139106103, lon : 1004957815, alt : -7710, eph : 269, epv : 65535, vel : 3, cog : 0, satellites_visible : 6}
GLOBAL_POSITION_INT {time_boot_ms : 14273, lat : 139106120, lon : 1004957786, alt : -7710, relative_alt : -100, vx : 3, vy : 0, vz : -3, hdg : 23278}
SERVO_OUTPUT_RAW {time_usec : 11788854, port : 0, servo1_raw : 1016, servo2_raw : 1016, servo3_raw : 1016, servo4_raw : 1016, servo5_raw : 0, servo6_raw : 0, servo7_raw : 0, servo8_raw : 0}
RC_CHANNELS_RAW {time_boot_ms : 14338, port : 0, chan1_raw : 1472, chan2_raw : 1506, chan3_raw : 1021, chan4_raw : 1499, chan5_raw : 1503, chan6_raw : 1503, chan7_raw : 1503, chan8_raw : 1503, rssi : 244}
ATTITUDE {time_boot_ms : 14338, roll : 0.00190344173461, pitch : -0.0155872683972, yaw : -2.22048997879, rollspeed : 0.000306893140078, pitchspeed : 0.000484634190798, yawspeed : 0.00105802714825}
VFR_HUD {airspeed : 0.0299999993294, groundspeed : 0.0299999993294, heading : 232, throttle : 0, alt : -0.0999999940395, climb : 0.0599999986589}
RAW_IMU {time_usec : 12008267, xacc : -25, yacc : 3, zacc : -1004, xgyro : 0, ygyro : 0, zgyro : 0, xmag : -278, ymag : 368, zmag : 82}
GPS_RAW_INT {time_usec : 14513000, fix_type : 3, lat : 139106104, lon : 1004957811, alt : -7730, eph : 269, epv : 65535, vel : 4, cog : 0, satellites_visible : 6}
GLOBAL_POSITION_INT {time_boot_ms : 14513, lat : 139106119, lon : 1004957783, alt : -7730, relative_alt : -100, vx : 4, vy : 1, vz : -4, hdg : 23277}
SERVO_OUTPUT_RAW {time_usec : 12009445, port : 0, servo1_raw : 1016, servo2_raw : 1016, servo3_raw : 1016, servo4_raw : 1016, servo5_raw : 0, servo6_raw : 0, servo7_raw : 0, servo8_raw : 0}
RC_CHANNELS_RAW {time_boot_ms : 14559, port : 0, chan1_raw : 1473, chan2_raw : 1506, chan3_raw : 1021, chan4_raw : 1499, chan5_raw : 1503, chan6_raw : 1503, chan7_raw : 1503, chan8_raw : 1503, rssi : 254}
ATTITUDE {time_boot_ms : 14559, roll : 0.0017772486899, pitch : -0.0156581103802, yaw : -2.22070789337, rollspeed : 0.000623263418674, pitchspeed : 0.000146470963955, yawspeed : 0.000546116381884}
VFR_HUD {airspeed : 0.0499999970198, groundspeed : 0.0499999970198, heading : 232, throttle : 0, alt : -0.0999999940395, climb : 0.0599999986589}
RAW_IMU {time_usec : 12228419, xacc : -24, yacc : 3, zacc : -1005, xgyro : 0, ygyro : 0, zgyro : 1, xmag : -279, ymag : 367, zmag : 84}
GPS_RAW_INT {time_usec : 14753000, fix_type : 3, lat : 139106103, lon : 1004957808, alt : -7780, eph : 269, epv : 65535, vel : 2, cog : 0, satellites_visible : 6}
GLOBAL_POSITION_INT {time_boot_ms : 14753, lat : 139106118, lon : 1004957779, alt : -7780, relative_alt : -110, vx : 2, vy : 1, vz : -2, hdg : 23275}
SERVO_OUTPUT_RAW {time_usec : 12228861, port : 0, servo1_raw : 1016, servo2_raw : 1016, servo3_raw : 1016, servo4_raw : 1016, servo5_raw : 0, servo6_raw : 0, servo7_raw : 0, servo8_raw : 0}
RC_CHANNELS_RAW {time_boot_ms : 14778, port : 0, chan1_raw : 1473, chan2_raw : 1506, chan3_raw : 1021, chan4_raw : 1499, chan5_raw : 1503, chan6_raw : 1503, chan7_raw : 1503, chan8_raw : 1503, rssi : 254}
ATTITUDE {time_boot_ms : 14779, roll : 0.00169454189017, pitch : -0.0156719535589, yaw : -2.22103524208, rollspeed : -0.000482097268105, pitchspeed : 0.00019684061408, yawspeed : 0.00195874273777}
VFR_HUD {airspeed : 0.019999999553, groundspeed : 0.019999999553, heading : 232, throttle : 0, alt : -0.109999999404, climb : 0.0599999986589}
RAW_IMU {time_usec : 12448725, xacc : -24, yacc : 5, zacc : -1004, xgyro : 0, ygyro : 1, zgyro : 1, xmag : -277, ymag : 367, zmag : 82}
GLOBAL_POSITION_INT {time_boot_ms : 14753, lat : 139106117, lon : 1004957778, alt : -7860, relative_alt : -120, vx : 2, vy : 1, vz : -2, hdg : 23273}
SERVO_OUTPUT_RAW {time_usec : 12449490, port : 0, servo1_raw : 1016, servo2_raw : 1016, servo3_raw : 1016, servo4_raw : 1016, servo5_raw : 0, servo6_raw : 0, servo7_raw : 0, servo8_raw : 0}
RC_CHANNELS_RAW {time_boot_ms : 14999, port : 0, chan1_raw : 1472, chan2_raw : 1507, chan3_raw : 1021, chan4_raw : 1499, chan5_raw : 1503, chan6_raw : 1503, chan7_raw : 1503, chan8_raw : 1502, rssi : 226}
ATTITUDE {time_boot_ms : 14999, roll : 0.00202158512548, pitch : -0.0156361218542, yaw : -2.2213845253, rollspeed : 0.000642888247967, pitchspeed : 0.00141522660851, yawspeed : 0.00102489441633}
VFR_HUD {airspeed : 0.019999999553, groundspeed : 0.019999999553, heading : 232, throttle : 0, alt : -0.119999997318, climb : 0.0599999986589}
RAW_IMU {time_usec : 12668517, xacc : -24, yacc : 5, zacc : -1005, xgyro : 0, ygyro : 0, zgyro : 2, xmag : -274, ymag : 369, zmag : 81}
GPS_RAW_INT {time_usec : 15013000, fix_type : 3, lat : 139106105, lon : 1004957804, alt : -7860, eph : 269, epv : 65535, vel : 4, cog : 0, satellites_visible : 6}
GLOBAL_POSITION_INT {time_boot_ms : 15013, lat : 139106116, lon : 1004957776, alt : -7860, relative_alt : -120, vx : 4, vy : -3, vz : -4, hdg : 23273}
SERVO_OUTPUT_RAW {time_usec : 12669264, port : 0, servo1_raw : 1016, servo2_raw : 1016, servo3_raw : 1016, servo4_raw : 1016, servo5_raw : 0, servo6_raw : 0, servo7_raw : 0, servo8_raw : 0}
RC_CHANNELS_RAW {time_boot_ms : 15219, port : 0, chan1_raw : 1472, chan2_raw : 1507, chan3_raw : 1020, chan4_raw : 1499, chan5_raw : 1503, chan6_raw : 1503, chan7_raw : 1503, chan8_raw : 1503, rssi : 250}
ATTITUDE {time_boot_ms : 15219, roll : 0.00208641192876, pitch : -0.0156750064343, yaw : -2.22130441666, rollspeed : -0.000551603734493, pitchspeed : 0.000770442187786, yawspeed : 0.00214176252484}
VFR_HUD {airspeed : 0.0499999970198, groundspeed : 0.0499999970198, heading : 232, throttle : 0, alt : -0.119999997318, climb : 0.0599999986589}
RAW_IMU {time_usec : 12888130, xacc : -22, yacc : 3, zacc : -1005, xgyro : -1, ygyro : 1, zgyro : 0, xmag : -278, ymag : 367, zmag : 89}
GPS_RAW_INT {time_usec : 15273000, fix_type : 3, lat : 139106107, lon : 1004957799, alt : -7990, eph : 269, epv : 65535, vel : 3, cog : 0, satellites_visible : 6}
GLOBAL_POSITION_INT {time_boot_ms : 15273, lat : 139106116, lon : 1004957774, alt : -7990, relative_alt : -110, vx : 2, vy : -2, vz : -2, hdg : 23275}
SERVO_OUTPUT_RAW {time_usec : 12888937, port : 0, servo1_raw : 1016, servo2_raw : 1016, servo3_raw : 1016, servo4_raw : 1016, servo5_raw : 0, servo6_raw : 0, servo7_raw : 0, servo8_raw : 0}
RC_CHANNELS_RAW {time_boot_ms : 15438, port : 0, chan1_raw : 1472, chan2_raw : 1506, chan3_raw : 1021, chan4_raw : 1499, chan5_raw : 1503, chan6_raw : 1503, chan7_raw : 1503, chan8_raw : 1503, rssi : 248}
ATTITUDE {time_boot_ms : 15439, roll : 0.00194364937488, pitch : -0.01573661156, yaw : -2.22106981277, rollspeed : -0.00141471624374, pitchspeed : 0.00111622363329, yawspeed : 0.000640992075205}
VFR_HUD {airspeed : 0.0299999993294, groundspeed : 0.0299999993294, heading : 232, throttle : 0, alt : -0.109999999404, climb : 0.0599999986589}
RAW_IMU {time_usec : 13108397, xacc : -24, yacc : 5, zacc : -1002, xgyro : 0, ygyro : 0, zgyro : 1, xmag : -281, ymag : 366, zmag : 89}
GPS_RAW_INT {time_usec : 15513000, fix_type : 3, lat : 139106109, lon : 1004957796, alt : -8130, eph : 269, epv : 65535, vel : 1, cog : 0, satellites_visible : 6}
GLOBAL_POSITION_INT {time_boot_ms : 15513, lat : 139106116, lon : 1004957772, alt : -8130, relative_alt : -100, vx : 1, vy : 1, vz : -1, hdg : 23273}
SERVO_OUTPUT_RAW {time_usec : 13108877, port : 0, servo1_raw : 1016, servo2_raw : 1016, servo3_raw : 1016, servo4_raw : 1016, servo5_raw : 0, servo6_raw : 0, servo7_raw : 0, servo8_raw : 0}
RC_CHANNELS_RAW {time_boot_ms : 15658, port : 0, chan1_raw : 1473, chan2_raw : 1507, chan3_raw : 1020, chan4_raw : 1499, chan5_raw : 1503, chan6_raw : 1503, chan7_raw : 1503, chan8_raw : 1503, rssi : 254}
ATTITUDE {time_boot_ms : 15659, roll : 0.00186400033999, pitch : -0.0157656352967, yaw : -2.22131228447, rollspeed : 0.000911936163902, pitchspeed : 0.000268504023552, yawspeed : 0.00143087469041}
VFR_HUD {airspeed : 0.00999999977648, groundspeed : 0.00999999977648, heading : 232, throttle : 0, alt : -0.0999999940395, climb : 0.070000000298}
RAW_IMU {time_usec : 13328144, xacc : -24, yacc : 3, zacc : -1004, xgyro : 0, ygyro : 0, zgyro : 1, xmag : -280, ymag : 368, zmag : 89}
GPS_RAW_INT {time_usec : 15772000, fix_type : 3, lat : 139106108, lon : 1004957792, alt : -8300, eph : 269, epv : 65535, vel : 13, cog : 0, satellites_visible : 6}
GLOBAL_POSITION_INT {time_boot_ms : 15772, lat : 139106116, lon : 1004957770, alt : -8300, relative_alt : -120, vx : -13, vy : -1, vz : 13, hdg : 23272}
SERVO_OUTPUT_RAW {time_usec : 13328868, port : 0, servo1_raw : 1016, servo2_raw : 1016, servo3_raw : 1016, servo4_raw : 1016, servo5_raw : 0, servo6_raw : 0, servo7_raw : 0, servo8_raw : 0}
RC_CHANNELS_RAW {time_boot_ms : 15878, port : 0, chan1_raw : 1473, chan2_raw : 1506, chan3_raw : 1021, chan4_raw : 1499, chan5_raw : 1503, chan6_raw : 1503, chan7_raw : 1503, chan8_raw : 1503, rssi : 237}
ATTITUDE {time_boot_ms : 15878, roll : 0.00189413677435, pitch : -0.0156806726009, yaw : -2.22151947021, rollspeed : -0.000789929181337, pitchspeed : 0.000217217952013, yawspeed : 0.00127082504332}
VFR_HUD {airspeed : 0.129999995232, groundspeed : 0.129999995232, heading : 232, throttle : 0, alt : -0.119999997318, climb : 0.0599999986589}
RAW_IMU {time_usec : 13548059, xacc : -23, yacc : 3, zacc : -1005, xgyro : 0, ygyro : 0, zgyro : 1, xmag : -277, ymag : 368, zmag : 87}
GPS_RAW_INT {time_usec : 16012000, fix_type : 3, lat : 139106106, lon : 1004957788, alt : -8450, eph : 269, epv : 65535, vel : 19, cog : 0, satellites_visible : 6}
GLOBAL_POSITION_INT {time_boot_ms : 16012, lat : 139106115, lon : 1004957768, alt : -8450, relative_alt : -100, vx : -19, vy : 0, vz : 19, hdg : 23272}
SERVO_OUTPUT_RAW {time_usec : 13549057, port : 0, servo1_raw : 1016, servo2_raw : 1016, servo3_raw : 1016, servo4_raw : 1016, servo5_raw : 0, servo6_raw : 0, servo7_raw : 0, servo8_raw : 0}
RC_CHANNELS_RAW {time_boot_ms : 16098, port : 0, chan1_raw : 1472, chan2_raw : 1507, chan3_raw : 1021, chan4_raw : 1499, chan5_raw : 1503, chan6_raw : 1503, chan7_raw : 1503, chan8_raw : 1502, rssi : 250}
ATTITUDE {time_boot_ms : 16099, roll : 0.00183630699757, pitch : -0.0157300643623, yaw : -2.22148561478, rollspeed : -0.000171720981598, pitchspeed : -0.000444136559963, yawspeed : 0.00186091847718}
VFR_HUD {airspeed : 0.199999988079, groundspeed : 0.199999988079, heading : 232, throttle : 0, alt : -0.0999999940395, climb : 0.0599999986589}
RAW_IMU {time_usec : 13768325, xacc : -23, yacc : 5, zacc : -1001, xgyro : 0, ygyro : 0, zgyro : 1, xmag : -277, ymag : 367, zmag : 82}
GPS_RAW_INT {time_usec : 16273000, fix_type : 3, lat : 139106110, lon : 1004957785, alt : -8520, eph : 269, epv : 65535, vel : 2, cog : 0, satellites_visible : 6}
GLOBAL_POSITION_INT {time_boot_ms : 16273, lat : 139106114, lon : 1004957766, alt : -8520, relative_alt : -80, vx : -2, vy : 1, vz : 2, hdg : 23272}
SERVO_OUTPUT_RAW {time_usec : 13768844, port : 0, servo1_raw : 1016, servo2_raw : 1016, servo3_raw : 1016, servo4_raw : 1016, servo5_raw : 0, servo6_raw : 0, servo7_raw : 0, servo8_raw : 0}
RC_CHANNELS_RAW {time_boot_ms : 16318, port : 0, chan1_raw : 1472, chan2_raw : 1507, chan3_raw : 1021, chan4_raw : 1498, chan5_raw : 1503, chan6_raw : 1503, chan7_raw : 1503, chan8_raw : 1503, rssi : 246}
ATTITUDE {time_boot_ms : 16318, roll : 0.00164240971208, pitch : -0.0156509075314, yaw : -2.22154116631, rollspeed : -0.000729754567146, pitchspeed : -0.000417836010456, yawspeed : 0.00159261375666}
VFR_HUD {airspeed : 0.019999999553, groundspeed : 0.019999999553, heading : 232, throttle : 0, alt : -0.0799999982119, climb : 0.070000000298}
RAW_IMU {time_usec : 13988060, xacc : -24, yacc : 4, zacc : -1006, xgyro : -1, ygyro : 0, zgyro : 1, xmag : -275, ymag : 366, zmag : 76}
GPS_RAW_INT {time_usec : 16513000, fix_type : 3, lat : 139106113, lon : 1004957779, alt : -8640, eph : 269, epv : 65535, vel : 4, cog : 0, satellites_visible : 6}
GLOBAL_POSITION_INT {time_boot_ms : 16513, lat : 139106114, lon : 1004957765, alt : -8640, relative_alt : -60, vx : 1, vy : -4, vz : -1, hdg : 23273}
SERVO_OUTPUT_RAW {time_usec : 13988846, port : 0, servo1_raw : 1016, servo2_raw : 1016, servo3_raw : 1016, servo4_raw : 1016, servo5_raw : 0, servo6_raw : 0, servo7_raw : 0, servo8_raw : 0}
RC_CHANNELS_RAW {time_boot_ms : 16538, port : 0, chan1_raw : 1472, chan2_raw : 1506, chan3_raw : 1021, chan4_raw : 1499, chan5_raw : 1503, chan6_raw : 1503, chan7_raw : 1503, chan8_raw : 1503, rssi : 254}
ATTITUDE {time_boot_ms : 16538, roll : 0.00159367872402, pitch : -0.0156437959522, yaw : -2.22138190269, rollspeed : -0.00145316123962, pitchspeed : -0.000104196369648, yawspeed : 0.00161468982697}
VFR_HUD {airspeed : 0.0499999970198, groundspeed : 0.0499999970198, heading : 232, throttle : 0, alt : -0.0599999986589, climb : 0.070000000298}
RAW_IMU {time_usec : 14208310, xacc : -24, yacc : 3, zacc : -1005, xgyro : 0, ygyro : 0, zgyro : 2, xmag : -277, ymag : 367, zmag : 81}
GLOBAL_POSITION_INT {time_boot_ms : 16513, lat : 139106115, lon : 1004957763, alt : -8700, relative_alt : -60, vx : 1, vy : -4, vz : -1, hdg : 23274}
SERVO_OUTPUT_RAW {time_usec : 14208743, port : 0, servo1_raw : 1016, servo2_raw : 1016, servo3_raw : 1016, servo4_raw : 1016, servo5_raw : 0, servo6_raw : 0, servo7_raw : 0, servo8_raw : 0}
RC_CHANNELS_RAW {time_boot_ms : 16758, port : 0, chan1_raw : 1472, chan2_raw : 1507, chan3_raw : 1021, chan4_raw : 1499, chan5_raw : 1503, chan6_raw : 1503, chan7_raw : 1503, chan8_raw : 1502, rssi : 232}
ATTITUDE {time_boot_ms : 16758, roll : 0.00164415978361, pitch : -0.0153880547732, yaw : -2.2212562561, rollspeed : -0.000832751393318, pitchspeed : 0.000186938792467, yawspeed : 0.00204445235431}
VFR_HUD {airspeed : 0.0499999970198, groundspeed : 0.0499999970198, heading : 232, throttle : 0, alt : -0.0599999986589, climb : 0.070000000298}
RAW_IMU {time_usec : 14428530, xacc : -24, yacc : 3, zacc : -1002, xgyro : 0, ygyro : 0, zgyro : 1, xmag : -275, ymag : 367, zmag : 81}
GPS_RAW_INT {time_usec : 16773000, fix_type : 3, lat : 139106114, lon : 1004957778, alt : -8700, eph : 269, epv : 65535, vel : 3, cog : 0, satellites_visible : 6}
GLOBAL_POSITION_INT {time_boot_ms : 16773, lat : 139106115, lon : 1004957760, alt : -8700, relative_alt : -60, vx : 2, vy : 2, vz : -2, hdg : 23275}
SERVO_OUTPUT_RAW {time_usec : 14428965, port : 0, servo1_raw : 1016, servo2_raw : 1016, servo3_raw : 1016, servo4_raw : 1016, servo5_raw : 0, servo6_raw : 0, servo7_raw : 0, servo8_raw : 0}
RC_CHANNELS_RAW {time_boot_ms : 16978, port : 0, chan1_raw : 1473, chan2_raw : 1506, chan3_raw : 1021, chan4_raw : 1499, chan5_raw : 1503, chan6_raw : 1503, chan7_raw : 1503, chan8_raw : 1503, rssi : 243}
ATTITUDE {time_boot_ms : 16979, roll : 0.00169093254954, pitch : -0.0152927879244, yaw : -2.22104525566, rollspeed : 0.000408805906773, pitchspeed : 0.000434331595898, yawspeed : 0.00112405046821}
VFR_HUD {airspeed : 0.0299999993294, groundspeed : 0.0299999993294, heading : 232, throttle : 0, alt : -0.0599999986589, climb : 0.070000000298}
RAW_IMU {time_usec : 14648043, xacc : -24, yacc : 4, zacc : -1001, xgyro : -1, ygyro : 0, zgyro : 1, xmag : -278, ymag : 366, zmag : 85}
GPS_RAW_INT {time_usec : 17013000, fix_type : 3, lat : 139106115, lon : 1004957776, alt : -8760, eph : 269, epv : 65535, vel : 4, cog : 0, satellites_visible : 6}
GLOBAL_POSITION_INT {time_boot_ms : 17013, lat : 139106116, lon : 1004957759, alt : -8760, relative_alt : -60, vx : 3, vy : 4, vz : -3, hdg : 23275}
SERVO_OUTPUT_RAW {time_usec : 14649043, port : 0, servo1_raw : 1016, servo2_raw : 1016, servo3_raw : 1016, servo4_raw : 1016, servo5_raw : 0, servo6_raw : 0, servo7_raw : 0, servo8_raw : 0}
RC_CHANNELS_RAW {time_boot_ms : 17198, port : 0, chan1_raw : 1472, chan2_raw : 1507, chan3_raw : 1021, chan4_raw : 1498, chan5_raw : 1503, chan6_raw : 1503, chan7_raw : 1503, chan8_raw : 1503, rssi : 251}
ATTITUDE {time_boot_ms : 17199, roll : 0.0015664921375, pitch : -0.0152052212507, yaw : -2.22101640701, rollspeed : -0.00105983018875, pitchspeed : 0.000684477388859, yawspeed : 0.00188169255853}
VFR_HUD {airspeed : 0.0499999970198, groundspeed : 0.0499999970198, heading : 232, throttle : 0, alt : -0.0599999986589, climb : 0.070000000298}
RAW_IMU {time_usec : 14868240, xacc : -22, yacc : 5, zacc : -1001, xgyro : 0, ygyro : 0, zgyro : 2, xmag : -278, ymag : 367, zmag : 90}
GPS_RAW_INT {time_usec : 17273000, fix_type : 3, lat : 139106115, lon : 1004957774, alt : -8850, eph : 269, epv : 65535, vel : 7, cog : 0, satellites_visible : 6}
GLOBAL_POSITION_INT {time_boot_ms : 17273, lat : 139106116, lon : 1004957758, alt : -8850, relative_alt : -60, vx : -3, vy : 6, vz : 3, hdg : 23274}
SERVO_OUTPUT_RAW {time_usec : 14868776, port : 0, servo1_raw : 1016, servo2_raw : 1016, servo3_raw : 1016, servo4_raw : 1016, servo5_raw : 0, servo6_raw : 0, servo7_raw : 0, servo8_raw : 0}
RC_CHANNELS_RAW {time_boot_ms : 17418, port : 0, chan1_raw : 1472, chan2_raw : 1507, chan3_raw : 1020, chan4_raw : 1499, chan5_raw : 1503, chan6_raw : 1503, chan7_raw : 1503, chan8_raw : 1503, rssi : 251}
ATTITUDE {time_boot_ms : 17418, roll : 0.00148658256512, pitch : -0.015102583915, yaw : -2.22118520737, rollspeed : -0.000219136476517, pitchspeed : -0.000101890414953, yawspeed : 0.00262571312487}
VFR_HUD {airspeed : 0.070000000298, groundspeed : 0.070000000298, heading : 232, throttle : 0, alt : -0.0599999986589, climb : 0.070000000298}
RAW_IMU {time_usec : 15088822, xacc : -23, yacc : 3, zacc : -1002, xgyro : -1, ygyro : 0, zgyro : 0, xmag : -277, ymag : 367, zmag : 85}
GPS_RAW_INT {time_usec : 17513000, fix_type : 3, lat : 139106115, lon : 1004957771, alt : -8910, eph : 270, epv : 65535, vel : 7, cog : 0, satellites_visible : 6}
GLOBAL_POSITION_INT {time_boot_ms : 17513, lat : 139106117, lon : 1004957757, alt : -8910, relative_alt : -60, vx : -2, vy : 7, vz : 2, hdg : 23275}
SERVO_OUTPUT_RAW {time_usec : 15089398, port : 0, servo1_raw : 1016, servo2_raw : 1016, servo3_raw : 1016, servo4_raw : 1016, servo5_raw : 0, servo6_raw : 0, servo7_raw : 0, servo8_raw : 0}
RC_CHANNELS_RAW {time_boot_ms : 17639, port : 0, chan1_raw : 1473, chan2_raw : 1506, chan3_raw : 1021, chan4_raw : 1499, chan5_raw : 1503, chan6_raw : 1503, chan7_raw : 1503, chan8_raw : 1503, rssi : 248}
ATTITUDE {time_boot_ms : 17639, roll : 0.00145116087515, pitch : -0.015099289827, yaw : -2.22094368935, rollspeed : -0.00141848623753, pitchspeed : 0.000323627144098, yawspeed : 0.00087414495647}
VFR_HUD {airspeed : 0.070000000298, groundspeed : 0.070000000298, heading : 232, throttle : 0, alt : -0.0599999986589, climb : 0.0599999986589}
RAW_IMU {time_usec : 15308245, xacc : -22, yacc : 3, zacc : -1004, xgyro : -1, ygyro : 0, zgyro : 1, xmag : -276, ymag : 367, zmag : 80}
GPS_RAW_INT {time_usec : 17773000, fix_type : 3, lat : 139106117, lon : 1004957769, alt : -8960, eph : 270, epv : 65535, vel : 9, cog : 0, satellites_visible : 6}
GLOBAL_POSITION_INT {time_boot_ms : 17773, lat : 139106117, lon : 1004957756, alt : -8960, relative_alt : -70, vx : 3, vy : 8, vz : -3, hdg : 23276}
SERVO_OUTPUT_RAW {time_usec : 15308833, port : 0, servo1_raw : 1016, servo2_raw : 1016, servo3_raw : 1016, servo4_raw : 1016, servo5_raw : 0, servo6_raw : 0, servo7_raw : 0, servo8_raw : 0}
RC_CHANNELS_RAW {time_boot_ms : 17858, port : 0, chan1_raw : 1472, chan2_raw : 1507, chan3_raw : 1021, chan4_raw : 1499, chan5_raw : 1503, chan6_raw : 1503, chan7_raw : 1503, chan8_raw : 1502, rssi : 250}
ATTITUDE {time_boot_ms : 17858, roll : 0.00144977855962, pitch : -0.0149771533906, yaw : -2.22077322006, rollspeed : -0.00109879672527, pitchspeed : 0.000891815871, yawspeed : 0.00153388082981}
VFR_HUD {airspeed : 0.0899999961257, groundspeed : 0.0899999961257, heading : 232, throttle : 0, alt : -0.070000000298, climb : 0.0599999986589}
RAW_IMU {time_usec : 15528244, xacc : -23, yacc : 4, zacc : -1007, xgyro : 0, ygyro : 0, zgyro : 0, xmag : -277, ymag : 368, zmag : 85}
GPS_RAW_INT {time_usec : 18013000, fix_type : 3, lat : 139106117, lon : 1004957765, alt : -9000, eph : 270, epv : 65535, vel : 4, cog : 0, satellites_visible : 6}
GLOBAL_POSITION_INT {time_boot_ms : 18013, lat : 139106117, lon : 1004957755, alt : -9000, relative_alt : -70, vx : 3, vy : 3, vz : -3, hdg : 23277}
SERVO_OUTPUT_RAW {time_usec : 15528877, port : 0, servo1_raw : 1016, servo2_raw : 1016, servo3_raw : 1016, servo4_raw : 1016, servo5_raw : 0, servo6_raw : 0, servo7_raw : 0, servo8_raw : 0}
RC_CHANNELS_RAW {time_boot_ms : 18078, port : 0, chan1_raw : 1472, chan2_raw : 1507, chan3_raw : 1021, chan4_raw : 1499, chan5_raw : 1503, chan6_raw : 1503, chan7_raw : 1503, chan8_raw : 1502, rssi : 249}
ATTITUDE {time_boot_ms : 18078, roll : 0.00140675401781, pitch : -0.0149437794462, yaw : -2.22064089775, rollspeed : -0.000869061797857, pitchspeed : 0.000491414219141, yawspeed : 0.000918745994568}
VFR_HUD {airspeed : 0.0399999991059, groundspeed : 0.0399999991059, heading : 232, throttle : 0, alt : -0.070000000298, climb : 0.0599999986589}
RAW_IMU {time_usec : 15748058, xacc : -24, yacc : 4, zacc : -1005, xgyro : 0, ygyro : 0, zgyro : 1, xmag : -276, ymag : 367, zmag : 88}
GPS_RAW_INT {time_usec : 18253000, fix_type : 3, lat : 139106119, lon : 1004957762, alt : -9080, eph : 270, epv : 65535, vel : 7, cog : 0, satellites_visible : 6}
GLOBAL_POSITION_INT {time_boot_ms : 18253, lat : 139106118, lon : 1004957754, alt : -9080, relative_alt : -60, vx : 7, vy : 2, vz : -7, hdg : 23278}
SERVO_OUTPUT_RAW {time_usec : 15748946, port : 0, servo1_raw : 1016, servo2_raw : 1016, servo3_raw : 1016, servo4_raw : 1016, servo5_raw : 0, servo6_raw : 0, servo7_raw : 0, servo8_raw : 0}
RC_CHANNELS_RAW {time_boot_ms : 18298, port : 0, chan1_raw : 1472, chan2_raw : 1507, chan3_raw : 1021, chan4_raw : 1498, chan5_raw : 1503, chan6_raw : 1503, chan7_raw : 1503, chan8_raw : 1503, rssi : 250}
ATTITUDE {time_boot_ms : 18299, roll : 0.0013522489462, pitch : -0.0151434792206, yaw : -2.22054433823, rollspeed : -0.000451784580946, pitchspeed : 0.000413198024035, yawspeed : 0.00104470551014}
VFR_HUD {airspeed : 0.070000000298, groundspeed : 0.070000000298, heading : 232, throttle : 0, alt : -0.0599999986589, climb : 0.0599999986589}
RAW_IMU {time_usec : 15968349, xacc : -22, yacc : 4, zacc : -1005, xgyro : -1, ygyro : 0, zgyro : 1, xmag : -276, ymag : 367, zmag : 81}
GPS_RAW_INT {time_usec : 18514000, fix_type : 3, lat : 139106119, lon : 1004957758, alt : -9090, eph : 270, epv : 65535, vel : 2, cog : 0, satellites_visible : 6}
GLOBAL_POSITION_INT {time_boot_ms : 18514, lat : 139106118, lon : 1004957753, alt : -9090, relative_alt : -60, vx : 2, vy : -1, vz : -2, hdg : 23278}
SERVO_OUTPUT_RAW {time_usec : 15968873, port : 0, servo1_raw : 1016, servo2_raw : 1016, servo3_raw : 1016, servo4_raw : 1016, servo5_raw : 0, servo6_raw : 0, servo7_raw : 0, servo8_raw : 0}
RC_CHANNELS_RAW {time_boot_ms : 18518, port : 0, chan1_raw : 1472, chan2_raw : 1507, chan3_raw : 1020, chan4_raw : 1499, chan5_raw : 1503, chan6_raw : 1503, chan7_raw : 1503, chan8_raw : 1503, rssi : 254}
ATTITUDE {time_boot_ms : 18519, roll : 0.00120127305854, pitch : -0.0152393430471, yaw : -2.22045469284, rollspeed : -0.00110511481762, pitchspeed : 0.000141315162182, yawspeed : 0.0016428232193}
VFR_HUD {airspeed : 0.019999999553, groundspeed : 0.019999999553, heading : 232, throttle : 0, alt : -0.0599999986589, climb : 0.0599999986589}
RAW_IMU {time_usec : 16188044, xacc : -24, yacc : 4, zacc : -1002, xgyro : 0, ygyro : 0, zgyro : 2, xmag : -277, ymag : 367, zmag : 83}
GLOBAL_POSITION_INT {time_boot_ms : 18514, lat : 139106119, lon : 1004957751, alt : -9090, relative_alt : -50, vx : 2, vy : -1, vz : -2, hdg : 23278}
SERVO_OUTPUT_RAW {time_usec : 16188826, port : 0, servo1_raw : 1016, servo2_raw : 1016, servo3_raw : 1016, servo4_raw : 1016, servo5_raw : 0, servo6_raw : 0, servo7_raw : 0, servo8_raw : 0}
RC_CHANNELS_RAW {time_boot_ms : 18738, port : 0, chan1_raw : 1473, chan2_raw : 1507, chan3_raw : 1021, chan4_raw : 1498, chan5_raw : 1503, chan6_raw : 1503, chan7_raw : 1503, chan8_raw : 1503, rssi : 250}
ATTITUDE {time_boot_ms : 18738, roll : 0.00132331205532, pitch : -0.0154097387567, yaw : -2.22044658661, rollspeed : -0.000392965972424, pitchspeed : 5.25675714016e-05, yawspeed : 0.00221533514559}
VFR_HUD {airspeed : 0.019999999553, groundspeed : 0.019999999553, heading : 232, throttle : 0, alt : -0.0499999970198, climb : 0.0599999986589}
RAW_IMU {time_usec : 16408278, xacc : -21, yacc : 5, zacc : -1005, xgyro : 0, ygyro : 0, zgyro : 0, xmag : -279, ymag : 366, zmag : 89}
GPS_RAW_INT {time_usec : 18772000, fix_type : 3, lat : 139106119, lon : 1004957756, alt : -9080, eph : 270, epv : 65535, vel : 4, cog : 0, satellites_visible : 6}
GLOBAL_POSITION_INT {time_boot_ms : 18772, lat : 139106119, lon : 1004957750, alt : -9080, relative_alt : -50, vx : 4, vy : -2, vz : -4, hdg : 23277}
SERVO_OUTPUT_RAW {time_usec : 16409084, port : 0, servo1_raw : 1016, servo2_raw : 1016, servo3_raw : 1016, servo4_raw : 1016, servo5_raw : 0, servo6_raw : 0, servo7_raw : 0, servo8_raw : 0}
RC_CHANNELS_RAW {time_boot_ms : 18958, port : 0, chan1_raw : 1473, chan2_raw : 1506, chan3_raw : 1021, chan4_raw : 1499, chan5_raw : 1503, chan6_raw : 1503, chan7_raw : 1503, chan8_raw : 1503, rssi : 246}
ATTITUDE {time_boot_ms : 18959, roll : 0.0011894319905, pitch : -0.0153056178242, yaw : -2.22066402435, rollspeed : -0.000642567873001, pitchspeed : 0.000852003693581, yawspeed : 0.000899374485016}
VFR_HUD {airspeed : 0.0399999991059, groundspeed : 0.0399999991059, heading : 232, throttle : 0, alt : -0.0499999970198, climb : 0.0599999986589}
RAW_IMU {time_usec : 16628318, xacc : -21, yacc : 5, zacc : -1006, xgyro : 0, ygyro : 1, zgyro : 1, xmag : -277, ymag : 367, zmag : 85}
GPS_RAW_INT {time_usec : 19033000, fix_type : 3, lat : 139106118, lon : 1004957752, alt : -9100, eph : 270, epv : 65535, vel : 3, cog : 0, satellites_visible : 6}
GLOBAL_POSITION_INT {time_boot_ms : 19033, lat : 139106119, lon : 1004957748, alt : -9100, relative_alt : -50, vx : -3, vy : -1, vz : 3, hdg : 23276}
SERVO_OUTPUT_RAW {time_usec : 16628863, port : 0, servo1_raw : 1016, servo2_raw : 1016, servo3_raw : 1016, servo4_raw : 1016, servo5_raw : 0, servo6_raw : 0, servo7_raw : 0, servo8_raw : 0}
RC_CHANNELS_RAW {time_boot_ms : 19178, port : 0, chan1_raw : 1472, chan2_raw : 1507, chan3_raw : 1021, chan4_raw : 1499, chan5_raw : 1503, chan6_raw : 1502, chan7_raw : 1504, chan8_raw : 1502, rssi : 221}
ATTITUDE {time_boot_ms : 19179, roll : 0.000961059995461, pitch : -0.0150480363518, yaw : -2.22088193893, rollspeed : -0.000251390039921, pitchspeed : 0.00186596810818, yawspeed : 0.00122766569257}
VFR_HUD {airspeed : 0.0299999993294, groundspeed : 0.0299999993294, heading : 232, throttle : 0, alt : -0.0499999970198, climb : 0.0599999986589}
RAW_IMU {time_usec : 16848062, xacc : -24, yacc : 4, zacc : -1001, xgyro : -1, ygyro : 0, zgyro : 2, xmag : -279, ymag : 366, zmag : 90}
GPS_RAW_INT {time_usec : 19273000, fix_type : 3, lat : 139106116, lon : 1004957746, alt : -9080, eph : 270, epv : 65535, vel : 19, cog : 0, satellites_visible : 6}
GLOBAL_POSITION_INT {time_boot_ms : 19273, lat : 139106118, lon : 1004957745, alt : -9080, relative_alt : -50, vx : -18, vy : -6, vz : 18, hdg : 23275}
